{
  "action": "CREATE_LOAD_AND_SUBMIT",
  "programName": "GIP",
  "loadDescription": "Load coins_static_dataset of 2023-02-27 05:26:30 (Batch 55a127d7-f1c3-4665-9680-f53952b6c0d8)",
  "jobName": "GIP_Brinks_Load",
  "persistOptions": {
    "responsePayload": "SUMMARY_AND_RECORDS",
    "persistMode": "ALWAYS",
    "defaultPublisherId": "BRINKS",
    "optionsPerEntity": {
      "Address": {
        "enrichers": "JOB_PRE_CONSO",
        "validations": "JOB_PRE_CONSO"
      },
      "CashPoint": {
        "enrichers": "JOB_PRE_CONSO",
        "validations": "JOB_PRE_CONSO"
      },
      "Location": {
        "enrichers": "JOB_PRE_CONSO",
        "validations": "JOB_PRE_CONSO"
      },
      "LocationTimetable": {
        "enrichers": "JOB_PRE_CONSO",
        "validations": "JOB_PRE_CONSO"
      }
    },
    "missingIdBehavior": "GENERATE"
  },
  "persistRecords": {
    "Address": [
      {
        "SourceID": "8861KW#1#1",
        "PublisherID_Location": "BRINKS",
        "SourceID_Location": "8861001",
        "Address": "Roordaweg 1",
        "City": "HARLINGEN",
        "Zipcode": "8861KW",
        "FID_AddressType": 1,
        "Longitude": 5.439714,
        "Latitude": 53.17336,
        "EnrichedAddress.Address": "Roordaweg 1, 8861 KW Harlingen, Netherlands",
        "EnrichedAddress.City": "Harlingen",
        "EnrichedAddress.Country": "Netherlands",
        "EnrichedAddress.CountryCode": "NL",
        "EnrichedAddress.County": "Harlingen",
        "EnrichedAddress.Latitude": 53.1733687,
        "EnrichedAddress.Longitude": 5.4397145,
        "EnrichedAddress.PostalCode": "8861 KW",
        "EnrichedAddress.ProcessCode": "OK",
        "EnrichedAddress.State": "Friesland",
        "EnrichedAddress.StreetNumber": "1",
        "EnrichedAddress.StreetName": "Roordaweg"
      },
      {
        "SourceID": "6101AJ#2#1",
        "PublisherID_Location": "BRINKS",
        "SourceID_Location": "6101001",
        "Address": "Palmbrugweg 2",
        "City": "ECHT",
        "Zipcode": "6101AJ",
        "FID_AddressType": 1,
        "Longitude": 5.861276,
        "Latitude": 51.10384,
        "EnrichedAddress.Address": "De Loop, Palmbrugweg 2, 6101 AJ Echt, Netherlands",
        "EnrichedAddress.City": "Echt-Susteren",
        "EnrichedAddress.Country": "Netherlands",
        "EnrichedAddress.CountryCode": "NL",
        "EnrichedAddress.County": "Echt",
        "EnrichedAddress.Latitude": 51.1038425,
        "EnrichedAddress.Longitude": 5.8612761,
        "EnrichedAddress.PostalCode": "6101 AJ",
        "EnrichedAddress.ProcessCode": "OK",
        "EnrichedAddress.State": "Limburg",
        "EnrichedAddress.StreetNumber": "2",
        "EnrichedAddress.StreetName": "Palmbrugweg"
      },
      {
        "SourceID": "7206AZ#47#1",
        "PublisherID_Location": "BRINKS",
        "SourceID_Location": "7206001",
        "Address": "De Stoven 47",
        "City": "ZUTPHEN",
        "Zipcode": "7206AZ",
        "FID_AddressType": 1,
        "Longitude": 6.212476,
        "Latitude": 52.12385,
        "EnrichedAddress.Address": "De Stoven 47, 7206 AZ Zutphen, Netherlands",
        "EnrichedAddress.City": "Zutphen",
        "EnrichedAddress.Country": "Netherlands",
        "EnrichedAddress.CountryCode": "NL",
        "EnrichedAddress.County": "Zutphen",
        "EnrichedAddress.Latitude": 52.1238566,
        "EnrichedAddress.Longitude": 6.212476499999999,
        "EnrichedAddress.PostalCode": "7206 AZ",
        "EnrichedAddress.ProcessCode": "OK",
        "EnrichedAddress.State": "Gelderland",
        "EnrichedAddress.StreetNumber": "47",
        "EnrichedAddress.StreetName": "De Stoven"
      },
      {
        "SourceID": "1456BD#14#1",
        "PublisherID_Location": "BRINKS",
        "SourceID_Location": "1456001",
        "Address": "Neckerstraat 14",
        "City": "WIJDEWORMER",
        "Zipcode": "1456BD",
        "FID_AddressType": 1,
        "Longitude": 4.932548,
        "Latitude": 52.51074,
        "EnrichedAddress.Address": "Neckerstraat 14, 1456 BD Wijdewormer, Netherlands",
        "EnrichedAddress.City": "Wormerland",
        "EnrichedAddress.Country": "Netherlands",
        "EnrichedAddress.CountryCode": "NL",
        "EnrichedAddress.County": "Wijdewormer",
        "EnrichedAddress.Latitude": 52.5107443,
        "EnrichedAddress.Longitude": 4.9325488,
        "EnrichedAddress.PostalCode": "1456 BD",
        "EnrichedAddress.ProcessCode": "OK",
        "EnrichedAddress.State": "Noord-Holland",
        "EnrichedAddress.StreetNumber": "14",
        "EnrichedAddress.StreetName": "Neckerstraat"
      },
      {
        "SourceID": "1105AL#10#1",
        "PublisherID_Location": "BRINKS",
        "SourceID_Location": "1105001",
        "Address": "Sijsjesbergweg 10",
        "City": "AMSTERDAM",
        "Zipcode": "1105AL",
        "FID_AddressType": 1,
        "Longitude": 4.943034,
        "Latitude": 52.29534,
        "EnrichedAddress.Address": "Sijsjesbergweg 10, 1105 AL Amsterdam, Netherlands",
        "EnrichedAddress.City": "Amsterdam",
        "EnrichedAddress.Country": "Netherlands",
        "EnrichedAddress.CountryCode": "NL",
        "EnrichedAddress.County": "Amsterdam",
        "EnrichedAddress.Latitude": 52.295347,
        "EnrichedAddress.Longitude": 4.9430347,
        "EnrichedAddress.PostalCode": "1105 AL",
        "EnrichedAddress.ProcessCode": "OK",
        "EnrichedAddress.State": "Noord-Holland",
        "EnrichedAddress.StreetNumber": "10",
        "EnrichedAddress.StreetName": "Sijsjesbergweg"
      },
      {
        "SourceID": "3084CB#120#1",
        "PublisherID_Location": "BRINKS",
        "SourceID_Location": "3084001",
        "Address": "Driemanssteeweg 120",
        "City": "ROTTERDAM",
        "Zipcode": "3084CB",
        "FID_AddressType": 1,
        "Longitude": 4.457063,
        "Latitude": 51.86458,
        "EnrichedAddress.Address": "Driemanssteeweg 120, 3084 CB Rotterdam, Netherlands",
        "EnrichedAddress.City": "Rotterdam",
        "EnrichedAddress.Country": "Netherlands",
        "EnrichedAddress.CountryCode": "NL",
        "EnrichedAddress.County": "Rotterdam",
        "EnrichedAddress.Latitude": 51.8645839,
        "EnrichedAddress.Longitude": 4.4570636,
        "EnrichedAddress.PostalCode": "3084 CB",
        "EnrichedAddress.ProcessCode": "OK",
        "EnrichedAddress.State": "Zuid-Holland",
        "EnrichedAddress.StreetNumber": "120",
        "EnrichedAddress.StreetName": "Driemanssteeweg"
      },
      {
        "SourceID": "2321JX#130#1",
        "PublisherID_Location": "BRINKS",
        "SourceID_Location": "2321001",
        "Address": "Lammenschansweg 130",
        "City": "LEIDEN",
        "Zipcode": "2321JX",
        "FID_AddressType": 1,
        "Longitude": 4.491579,
        "Latitude": 52.14588,
        "EnrichedAddress.Address": "Lammenschansweg 130, 2321 JX Leiden, Netherlands",
        "EnrichedAddress.City": "Leiden",
        "EnrichedAddress.Country": "Netherlands",
        "EnrichedAddress.CountryCode": "NL",
        "EnrichedAddress.County": "Leiden",
        "EnrichedAddress.Latitude": 52.1458801,
        "EnrichedAddress.Longitude": 4.4915798,
        "EnrichedAddress.PostalCode": "2321 JX",
        "EnrichedAddress.ProcessCode": "OK",
        "EnrichedAddress.State": "Zuid-Holland",
        "EnrichedAddress.StreetNumber": "130",
        "EnrichedAddress.StreetName": "Lammenschansweg"
      },
      {
        "SourceID": "3448DC#8#1",
        "PublisherID_Location": "BRINKS",
        "SourceID_Location": "3448001",
        "Address": "Molenvlietbaan 8",
        "City": "WOERDEN",
        "Zipcode": "3448DC",
        "FID_AddressType": 1,
        "Longitude": 4.867683,
        "Latitude": 52.08269,
        "EnrichedAddress.Address": "Molenvlietbaan 8, 3448 DC Woerden, Netherlands",
        "EnrichedAddress.City": "Woerden",
        "EnrichedAddress.Country": "Netherlands",
        "EnrichedAddress.CountryCode": "NL",
        "EnrichedAddress.County": "Woerden",
        "EnrichedAddress.Latitude": 52.0826996,
        "EnrichedAddress.Longitude": 4.867683599999999,
        "EnrichedAddress.PostalCode": "3448 DC",
        "EnrichedAddress.ProcessCode": "OK",
        "EnrichedAddress.State": "Utrecht",
        "EnrichedAddress.StreetNumber": "8",
        "EnrichedAddress.StreetName": "Molenvlietbaan"
      },
      {
        "SourceID": "3961NC#6#1",
        "PublisherID_Location": "BRINKS",
        "SourceID_Location": "3961001",
        "Address": "Hoge maat 6 A",
        "City": "WIJK BIJ DUURSTEDE",
        "Zipcode": "3961NC",
        "FID_AddressType": 1,
        "Longitude": 5.314437,
        "Latitude": 51.97378,
        "EnrichedAddress.Address": "Broekweg, Hoge Maat 6A, 3961 NC Wijk bij Duurstede, Netherlands",
        "EnrichedAddress.City": "Wijk bij Duurstede",
        "EnrichedAddress.Country": "Netherlands",
        "EnrichedAddress.CountryCode": "NL",
        "EnrichedAddress.County": "Wijk bij Duurstede",
        "EnrichedAddress.Latitude": 51.9737818,
        "EnrichedAddress.Longitude": 5.314437499999999,
        "EnrichedAddress.PostalCode": "3961 NC",
        "EnrichedAddress.ProcessCode": "OK",
        "EnrichedAddress.State": "Utrecht",
        "EnrichedAddress.StreetNumber": "6A",
        "EnrichedAddress.StreetName": "Hoge Maat"
      },
      {
        "SourceID": "5405AC#25#1",
        "PublisherID_Location": "BRINKS",
        "SourceID_Location": "5405001",
        "Address": "Loopkantstraat 25 A",
        "City": "UDEN",
        "Zipcode": "5405AC",
        "FID_AddressType": 1,
        "Longitude": 5.639831,
        "Latitude": 51.65692,
        "EnrichedAddress.Address": "Loopkantstraat 25A, 5405 AC Uden, Netherlands",
        "EnrichedAddress.City": "Uden",
        "EnrichedAddress.Country": "Netherlands",
        "EnrichedAddress.CountryCode": "NL",
        "EnrichedAddress.County": "Uden",
        "EnrichedAddress.Latitude": 51.6569229,
        "EnrichedAddress.Longitude": 5.6398315,
        "EnrichedAddress.PostalCode": "5405 AC",
        "EnrichedAddress.ProcessCode": "OK",
        "EnrichedAddress.State": "Noord-Brabant",
        "EnrichedAddress.StreetNumber": "25A",
        "EnrichedAddress.StreetName": "Loopkantstraat"
      },
      {
        "SourceID": "3845MC#17#1",
        "PublisherID_Location": "BRINKS",
        "SourceID_Location": "3845001",
        "Address": "Zuiderbreedte 17",
        "City": "HARDERWIJK",
        "Zipcode": "3845MC",
        "FID_AddressType": 1,
        "Longitude": 5.613311,
        "Latitude": 52.32489,
        "EnrichedAddress.Address": "Zuiderbreedte 17, 3845 MC Harderwijk, Netherlands",
        "EnrichedAddress.City": "Harderwijk",
        "EnrichedAddress.Country": "Netherlands",
        "EnrichedAddress.CountryCode": "NL",
        "EnrichedAddress.County": "Harderwijk",
        "EnrichedAddress.Latitude": 52.3248913,
        "EnrichedAddress.Longitude": 5.6133111,
        "EnrichedAddress.PostalCode": "3845 MC",
        "EnrichedAddress.ProcessCode": "OK",
        "EnrichedAddress.State": "Gelderland",
        "EnrichedAddress.StreetNumber": "17",
        "EnrichedAddress.StreetName": "Zuiderbreedte"
      },
      {
        "SourceID": "7942JR#3#1",
        "PublisherID_Location": "BRINKS",
        "SourceID_Location": "7942001",
        "Address": "Zomerdijk 3",
        "City": "MEPPEL",
        "Zipcode": "7942JR",
        "FID_AddressType": 1,
        "Longitude": 6.182193,
        "Latitude": 52.7018,
        "EnrichedAddress.Address": "Zomerdijk 3, 7942 JR Meppel, Netherlands",
        "EnrichedAddress.City": "Meppel",
        "EnrichedAddress.Country": "Netherlands",
        "EnrichedAddress.CountryCode": "NL",
        "EnrichedAddress.County": "Meppel",
        "EnrichedAddress.Latitude": 52.7018092,
        "EnrichedAddress.Longitude": 6.1821933,
        "EnrichedAddress.PostalCode": "7942 JR",
        "EnrichedAddress.ProcessCode": "OK",
        "EnrichedAddress.State": "Drenthe",
        "EnrichedAddress.StreetNumber": "3",
        "EnrichedAddress.StreetName": "Zomerdijk"
      },
      {
        "SourceID": "6231GX#15#1",
        "PublisherID_Location": "BRINKS",
        "SourceID_Location": "6231001",
        "Address": "Charles Eijckstraat 15",
        "City": "MEERSSEN",
        "Zipcode": "6231GX",
        "FID_AddressType": 1,
        "Longitude": 5.747598,
        "Latitude": 50.88629,
        "EnrichedAddress.Address": "Charles Eijckstraat 15, 6231 EJ Meerssen, Netherlands",
        "EnrichedAddress.City": "Meerssen",
        "EnrichedAddress.Country": "Netherlands",
        "EnrichedAddress.CountryCode": "NL",
        "EnrichedAddress.County": "Meerssen",
        "EnrichedAddress.Latitude": 50.88629419999999,
        "EnrichedAddress.Longitude": 5.747598099999999,
        "EnrichedAddress.PostalCode": "6231 EJ",
        "EnrichedAddress.ProcessCode": "OK",
        "EnrichedAddress.State": "Limburg",
        "EnrichedAddress.StreetNumber": "15",
        "EnrichedAddress.StreetName": "Charles Eijckstraat"
      },
      {
        "SourceID": "8239AB#3#1",
        "PublisherID_Location": "BRINKS",
        "SourceID_Location": "8239001",
        "Address": "Zuiderpoort 3",
        "City": "LELYSTAD",
        "Zipcode": "8239AB",
        "FID_AddressType": 1,
        "Longitude": 5.481427,
        "Latitude": 52.49176,
        "EnrichedAddress.Address": "Zuiderpoort 3, 8239 AB Lelystad, Netherlands",
        "EnrichedAddress.City": "Lelystad",
        "EnrichedAddress.Country": "Netherlands",
        "EnrichedAddress.CountryCode": "NL",
        "EnrichedAddress.County": "Lelystad",
        "EnrichedAddress.Latitude": 52.4917672,
        "EnrichedAddress.Longitude": 5.4814276,
        "EnrichedAddress.PostalCode": "8239 AB",
        "EnrichedAddress.ProcessCode": "OK",
        "EnrichedAddress.State": "Flevoland",
        "EnrichedAddress.StreetNumber": "3",
        "EnrichedAddress.StreetName": "Zuiderpoort"
      },
      {
        "SourceID": "5466SB#4920#1",
        "PublisherID_Location": "BRINKS",
        "SourceID_Location": "5466001",
        "Address": "Poort van Veghel 4920",
        "City": "VEGHEL",
        "Zipcode": "5466SB",
        "FID_AddressType": 1,
        "Longitude": 5.515416,
        "Latitude": 51.59813,
        "EnrichedAddress.Address": "Poort van Veghel 4920, 5466 SB Veghel, Netherlands",
        "EnrichedAddress.City": "Meierijstad Gemeente",
        "EnrichedAddress.Country": "Netherlands",
        "EnrichedAddress.CountryCode": "NL",
        "EnrichedAddress.County": "Veghel",
        "EnrichedAddress.Latitude": 51.5981365,
        "EnrichedAddress.Longitude": 5.5154166,
        "EnrichedAddress.PostalCode": "5466 SB",
        "EnrichedAddress.ProcessCode": "OK",
        "EnrichedAddress.State": "Noord-Brabant",
        "EnrichedAddress.StreetNumber": "4920",
        "EnrichedAddress.StreetName": "Poort van Veghel"
      },
      {
        "SourceID": "1521RA#911#1",
        "PublisherID_Location": "BRINKS",
        "SourceID_Location": "1521001",
        "Address": "Samsonweg 9-11",
        "City": "WORMERVEER",
        "Zipcode": "1521RA",
        "FID_AddressType": 1,
        "Longitude": 4.780265,
        "Latitude": 52.50538,
        "EnrichedAddress.Address": "Samsonweg 9-11, 1521 RA Wormerveer, Netherlands",
        "EnrichedAddress.City": "Zaanstad",
        "EnrichedAddress.Country": "Netherlands",
        "EnrichedAddress.CountryCode": "NL",
        "EnrichedAddress.County": "Wormerveer",
        "EnrichedAddress.Latitude": 52.5053876,
        "EnrichedAddress.Longitude": 4.7802653,
        "EnrichedAddress.PostalCode": "1521 RA",
        "EnrichedAddress.ProcessCode": "OK",
        "EnrichedAddress.State": "Noord-Holland",
        "EnrichedAddress.StreetNumber": "9-11",
        "EnrichedAddress.StreetName": "Samsonweg"
      },
      {
        "SourceID": "9902BW#130#1",
        "PublisherID_Location": "BRINKS",
        "SourceID_Location": "9902001",
        "Address": "Farmsumerweg 130",
        "City": "APPINGEDAM",
        "Zipcode": "9902BW",
        "FID_AddressType": 1,
        "Longitude": 6.878302,
        "Latitude": 53.31842,
        "EnrichedAddress.Address": "Farmsumerweg 130, 9902 BW Appingedam, Netherlands",
        "EnrichedAddress.City": "Eemsdelta",
        "EnrichedAddress.Country": "Netherlands",
        "EnrichedAddress.CountryCode": "NL",
        "EnrichedAddress.County": "Appingedam",
        "EnrichedAddress.Latitude": 53.3184228,
        "EnrichedAddress.Longitude": 6.8783021,
        "EnrichedAddress.PostalCode": "9902 BW",
        "EnrichedAddress.ProcessCode": "OK",
        "EnrichedAddress.State": "Groningen",
        "EnrichedAddress.StreetNumber": "130",
        "EnrichedAddress.StreetName": "Farmsumerweg"
      },
      {
        "SourceID": "6163RB#2#1",
        "PublisherID_Location": "BRINKS",
        "SourceID_Location": "6163001",
        "Address": "Egelantier 2",
        "City": "GELEEN",
        "Zipcode": "6163RB",
        "FID_AddressType": 1,
        "Longitude": 5.816612,
        "Latitude": 50.99158,
        "EnrichedAddress.Address": "Egelantier 2, 6163 RB Geleen, Netherlands",
        "EnrichedAddress.City": "Sittard-Geleen",
        "EnrichedAddress.Country": "Netherlands",
        "EnrichedAddress.CountryCode": "NL",
        "EnrichedAddress.County": "Geleen",
        "EnrichedAddress.Latitude": 50.991584,
        "EnrichedAddress.Longitude": 5.8166125,
        "EnrichedAddress.PostalCode": "6163 RB",
        "EnrichedAddress.ProcessCode": "OK",
        "EnrichedAddress.State": "Limburg",
        "EnrichedAddress.StreetNumber": "2",
        "EnrichedAddress.StreetName": "Egelantier"
      },
      {
        "SourceID": "7324AA#52#1",
        "PublisherID_Location": "BRINKS",
        "SourceID_Location": "7324001",
        "Address": "Laan van de Dierenriem 52",
        "City": "APELDOORN",
        "Zipcode": "7324AA",
        "FID_AddressType": 1,
        "Longitude": 5.986528,
        "Latitude": 52.23653,
        "EnrichedAddress.Address": "Laan van de Dierenriem 52, 7324 AA Apeldoorn, Netherlands",
        "EnrichedAddress.City": "Apeldoorn",
        "EnrichedAddress.Country": "Netherlands",
        "EnrichedAddress.CountryCode": "NL",
        "EnrichedAddress.County": "Apeldoorn",
        "EnrichedAddress.Latitude": 52.2365365,
        "EnrichedAddress.Longitude": 5.9865286,
        "EnrichedAddress.PostalCode": "7324 AA",
        "EnrichedAddress.ProcessCode": "OK",
        "EnrichedAddress.State": "Gelderland",
        "EnrichedAddress.StreetNumber": "52",
        "EnrichedAddress.StreetName": "Laan van de Dierenriem"
      },
      {
        "SourceID": "8938AD#17#1",
        "PublisherID_Location": "BRINKS",
        "SourceID_Location": "8938001",
        "Address": "Jupiterweg 17",
        "City": "LEEUWARDEN",
        "Zipcode": "8938AD",
        "FID_AddressType": 1,
        "Longitude": 5.841095,
        "Latitude": 53.19612,
        "EnrichedAddress.Address": "Jupiterweg 17, 8938 AD Leeuwarden, Netherlands",
        "EnrichedAddress.City": "Leeuwarden",
        "EnrichedAddress.Country": "Netherlands",
        "EnrichedAddress.CountryCode": "NL",
        "EnrichedAddress.County": "Leeuwarden",
        "EnrichedAddress.Latitude": 53.1961238,
        "EnrichedAddress.Longitude": 5.841095399999999,
        "EnrichedAddress.PostalCode": "8938 AD",
        "EnrichedAddress.ProcessCode": "OK",
        "EnrichedAddress.State": "Friesland",
        "EnrichedAddress.StreetNumber": "17",
        "EnrichedAddress.StreetName": "Jupiterweg"
      },
      {
        "SourceID": "3895BX#7#1",
        "PublisherID_Location": "BRINKS",
        "SourceID_Location": "3895001",
        "Address": "Bolwerk 7",
        "City": "ZEEWOLDE",
        "Zipcode": "3895BX",
        "FID_AddressType": 1,
        "Longitude": 3.846908,
        "Latitude": 51.30087,
        "EnrichedAddress.Address": "Meester F.J. Haarmanweg 59, 4538 AN Terneuzen, Netherlands",
        "EnrichedAddress.City": "Terneuzen",
        "EnrichedAddress.Country": "Netherlands",
        "EnrichedAddress.CountryCode": "NL",
        "EnrichedAddress.County": "Terneuzen",
        "EnrichedAddress.Latitude": 51.3008736,
        "EnrichedAddress.Longitude": 3.8469087,
        "EnrichedAddress.PostalCode": "4538 AN",
        "EnrichedAddress.ProcessCode": "OK",
        "EnrichedAddress.State": "Zeeland",
        "EnrichedAddress.StreetNumber": "59",
        "EnrichedAddress.StreetName": "Meester F.J. Haarmanweg"
      },
      {
        "SourceID": "7731RX#1#1",
        "PublisherID_Location": "BRINKS",
        "SourceID_Location": "7731001",
        "Address": "Balkerweg 1",
        "City": "OMMEN",
        "Zipcode": "7731RX",
        "FID_AddressType": 1,
        "Longitude": 6.422295,
        "Latitude": 52.529,
        "EnrichedAddress.Address": "Balkerweg 1, 7731 RX Ommen, Netherlands",
        "EnrichedAddress.City": "Ommen",
        "EnrichedAddress.Country": "Netherlands",
        "EnrichedAddress.CountryCode": "NL",
        "EnrichedAddress.County": "Ommen",
        "EnrichedAddress.Latitude": 52.52900690000001,
        "EnrichedAddress.Longitude": 6.422295699999999,
        "EnrichedAddress.PostalCode": "7731 RX",
        "EnrichedAddress.ProcessCode": "OK",
        "EnrichedAddress.State": "Overijssel",
        "EnrichedAddress.StreetNumber": "1",
        "EnrichedAddress.StreetName": "Balkerweg"
      },
      {
        "SourceID": "5051JS#14#1",
        "PublisherID_Location": "BRINKS",
        "SourceID_Location": "5051001",
        "Address": "Wim R\\u00f6therlaan 14",
        "City": "GOIRLE",
        "Zipcode": "5051JS",
        "FID_AddressType": 1,
        "Longitude": 5.048478,
        "Latitude": 51.51182,
        "EnrichedAddress.Address": "Wim Rotherlaan 14, 5051 JS Goirle, Netherlands",
        "EnrichedAddress.City": "Goirle",
        "EnrichedAddress.Country": "Netherlands",
        "EnrichedAddress.CountryCode": "NL",
        "EnrichedAddress.County": "Goirle",
        "EnrichedAddress.Latitude": 51.5118273,
        "EnrichedAddress.Longitude": 5.0484781,
        "EnrichedAddress.PostalCode": "5051 JS",
        "EnrichedAddress.ProcessCode": "OK",
        "EnrichedAddress.State": "Noord-Brabant",
        "EnrichedAddress.StreetNumber": "14",
        "EnrichedAddress.StreetName": "Wim Rotherlaan"
      },
      {
        "SourceID": "6651KT#80#1",
        "PublisherID_Location": "BRINKS",
        "SourceID_Location": "6651001",
        "Address": "Energieweg 80",
        "City": "DRUTEN",
        "Zipcode": "6651KT",
        "FID_AddressType": 1,
        "Longitude": 5.577628,
        "Latitude": 51.884,
        "EnrichedAddress.Address": "Energieweg 80, 6651 KT Druten, Netherlands",
        "EnrichedAddress.City": "Druten",
        "EnrichedAddress.Country": "Netherlands",
        "EnrichedAddress.CountryCode": "NL",
        "EnrichedAddress.County": "Druten",
        "EnrichedAddress.Latitude": 51.8840075,
        "EnrichedAddress.Longitude": 5.577628499999999,
        "EnrichedAddress.PostalCode": "6651 KT",
        "EnrichedAddress.ProcessCode": "OK",
        "EnrichedAddress.State": "Gelderland",
        "EnrichedAddress.StreetNumber": "80",
        "EnrichedAddress.StreetName": "Energieweg"
      },
      {
        "SourceID": "9101PZ#2#1",
        "PublisherID_Location": "BRINKS",
        "SourceID_Location": "9101001",
        "Address": "Zuiderschans 2",
        "City": "DOKKUM",
        "Zipcode": "9101PZ",
        "FID_AddressType": 1,
        "Longitude": 5.989449,
        "Latitude": 53.31448,
        "EnrichedAddress.Address": "Zuiderschans 2, 9101 PZ Dokkum, Netherlands",
        "EnrichedAddress.City": "Noardeast-Frysl\\u00e2n",
        "EnrichedAddress.Country": "Netherlands",
        "EnrichedAddress.CountryCode": "NL",
        "EnrichedAddress.County": "Dokkum",
        "EnrichedAddress.Latitude": 53.3144855,
        "EnrichedAddress.Longitude": 5.989449899999999,
        "EnrichedAddress.PostalCode": "9101 PZ",
        "EnrichedAddress.ProcessCode": "OK",
        "EnrichedAddress.State": "Friesland",
        "EnrichedAddress.StreetNumber": "2",
        "EnrichedAddress.StreetName": "Zuiderschans"
      },
      {
        "SourceID": "3911TN#38#1",
        "PublisherID_Location": "BRINKS",
        "SourceID_Location": "3911001",
        "Address": "Tasveld 38",
        "City": "RHENEN",
        "Zipcode": "3911TN",
        "FID_AddressType": 1,
        "Longitude": 5.530692,
        "Latitude": 51.9731,
        "EnrichedAddress.Address": "Tasveld 38, 3911 TN Rhenen, Netherlands",
        "EnrichedAddress.City": "Rhenen",
        "EnrichedAddress.Country": "Netherlands",
        "EnrichedAddress.CountryCode": "NL",
        "EnrichedAddress.County": "Rhenen",
        "EnrichedAddress.Latitude": 51.9731092,
        "EnrichedAddress.Longitude": 5.5306921,
        "EnrichedAddress.PostalCode": "3911 TN",
        "EnrichedAddress.ProcessCode": "OK",
        "EnrichedAddress.State": "Utrecht",
        "EnrichedAddress.StreetNumber": "38",
        "EnrichedAddress.StreetName": "Tasveld"
      },
      {
        "SourceID": "7461PE#196#1",
        "PublisherID_Location": "BRINKS",
        "SourceID_Location": "7461001",
        "Address": "Enterstraat 196 A",
        "City": "RIJSSEN",
        "Zipcode": "7461PE",
        "FID_AddressType": 1,
        "Longitude": 6.541411,
        "Latitude": 52.29919,
        "EnrichedAddress.Address": "Enterstraat 196a, 7461 PE Rijssen, Netherlands",
        "EnrichedAddress.City": "Rijssen-Holten",
        "EnrichedAddress.Country": "Netherlands",
        "EnrichedAddress.CountryCode": "NL",
        "EnrichedAddress.County": "Rijssen",
        "EnrichedAddress.Latitude": 52.2991957,
        "EnrichedAddress.Longitude": 6.5414118,
        "EnrichedAddress.PostalCode": "7461 PE",
        "EnrichedAddress.ProcessCode": "OK",
        "EnrichedAddress.State": "Overijssel",
        "EnrichedAddress.StreetNumber": "196a",
        "EnrichedAddress.StreetName": "Enterstraat"
      },
      {
        "SourceID": "5802EH#17#1",
        "PublisherID_Location": "BRINKS",
        "SourceID_Location": "5802001",
        "Address": "Plataanstraat 17",
        "City": "VENRAY",
        "Zipcode": "5802EH",
        "FID_AddressType": 1,
        "Longitude": 5.984379,
        "Latitude": 51.51676,
        "EnrichedAddress.Address": "Plataanstraat 17, 5802 EH Venray, Netherlands",
        "EnrichedAddress.City": "Venray",
        "EnrichedAddress.Country": "Netherlands",
        "EnrichedAddress.CountryCode": "NL",
        "EnrichedAddress.County": "Venray",
        "EnrichedAddress.Latitude": 51.51676399999999,
        "EnrichedAddress.Longitude": 5.9843796,
        "EnrichedAddress.PostalCode": "5802 EH",
        "EnrichedAddress.ProcessCode": "OK",
        "EnrichedAddress.State": "Limburg",
        "EnrichedAddress.StreetNumber": "17",
        "EnrichedAddress.StreetName": "Plataanstraat"
      },
      {
        "SourceID": "6226VJ#3#1",
        "PublisherID_Location": "BRINKS",
        "SourceID_Location": "6226001",
        "Address": "Oostermaasweg 3",
        "City": "MAASTRICHT",
        "Zipcode": "6226VJ",
        "FID_AddressType": 1,
        "Longitude": 5.725349,
        "Latitude": 50.85369,
        "EnrichedAddress.Address": "Parkeerplaats, Parkeerplaats, Oostermaasweg 3, 6226 VJ Maastricht, Netherlands",
        "EnrichedAddress.City": "Maastricht",
        "EnrichedAddress.Country": "Netherlands",
        "EnrichedAddress.CountryCode": "NL",
        "EnrichedAddress.County": "Maastricht",
        "EnrichedAddress.Latitude": 50.85369499999999,
        "EnrichedAddress.Longitude": 5.7253492,
        "EnrichedAddress.PostalCode": "6226 VJ",
        "EnrichedAddress.ProcessCode": "OK",
        "EnrichedAddress.State": "Limburg",
        "EnrichedAddress.StreetNumber": "3",
        "EnrichedAddress.StreetName": "Oostermaasweg"
      },
      {
        "SourceID": "9411SG#1#1",
        "PublisherID_Location": "BRINKS",
        "SourceID_Location": "9411001",
        "Address": "Dambroeken 1",
        "City": "BEILEN",
        "Zipcode": "9411SG",
        "FID_AddressType": 1,
        "Longitude": 6.499738,
        "Latitude": 52.85554,
        "EnrichedAddress.Address": "Dambroeken 1, 9411 SG Beilen, Netherlands",
        "EnrichedAddress.City": "Midden-Drenthe",
        "EnrichedAddress.Country": "Netherlands",
        "EnrichedAddress.CountryCode": "NL",
        "EnrichedAddress.County": "Beilen",
        "EnrichedAddress.Latitude": 52.8555414,
        "EnrichedAddress.Longitude": 6.4997389,
        "EnrichedAddress.PostalCode": "9411 SG",
        "EnrichedAddress.ProcessCode": "OK",
        "EnrichedAddress.State": "Drenthe",
        "EnrichedAddress.StreetNumber": "1",
        "EnrichedAddress.StreetName": "Dambroeken"
      },
      {
        "SourceID": "3281NG#1#1",
        "PublisherID_Location": "BRINKS",
        "SourceID_Location": "3281001",
        "Address": "Voltastraat 1",
        "City": "NUMANSDORP",
        "Zipcode": "3281NG",
        "FID_AddressType": 1,
        "Longitude": 4.451344,
        "Latitude": 51.7485,
        "EnrichedAddress.Address": "Voltastraat 1, 3281 NG Numansdorp, Netherlands",
        "EnrichedAddress.City": "Hoeksche Waard",
        "EnrichedAddress.Country": "Netherlands",
        "EnrichedAddress.CountryCode": "NL",
        "EnrichedAddress.County": "Numansdorp",
        "EnrichedAddress.Latitude": 51.7485054,
        "EnrichedAddress.Longitude": 4.4513448,
        "EnrichedAddress.PostalCode": "3281 NG",
        "EnrichedAddress.ProcessCode": "OK",
        "EnrichedAddress.State": "Zuid-Holland",
        "EnrichedAddress.StreetNumber": "1",
        "EnrichedAddress.StreetName": "Voltastraat"
      },
      {
        "SourceID": "6136GV#124#1",
        "PublisherID_Location": "BRINKS",
        "SourceID_Location": "6136001",
        "Address": "Dr. Nolenslaan 124",
        "City": "SITTARD",
        "Zipcode": "6136GV",
        "FID_AddressType": 1,
        "Longitude": 5.867181,
        "Latitude": 51.018,
        "EnrichedAddress.Address": "Doctor Nolenslaan 124, 6136 GV Sittard, Netherlands",
        "EnrichedAddress.City": "Sittard-Geleen",
        "EnrichedAddress.Country": "Netherlands",
        "EnrichedAddress.CountryCode": "NL",
        "EnrichedAddress.County": "Sittard",
        "EnrichedAddress.Latitude": 51.01800009999999,
        "EnrichedAddress.Longitude": 5.867182,
        "EnrichedAddress.PostalCode": "6136 GV",
        "EnrichedAddress.ProcessCode": "OK",
        "EnrichedAddress.State": "Limburg",
        "EnrichedAddress.StreetNumber": "124",
        "EnrichedAddress.StreetName": "Doctor Nolenslaan"
      },
      {
        "SourceID": "6642AG#62#1",
        "PublisherID_Location": "BRINKS",
        "SourceID_Location": "6642001",
        "Address": "Claudiuslaan 62",
        "City": "BEUNINGEN GLD",
        "Zipcode": "6642AG",
        "FID_AddressType": 1,
        "Longitude": 5.753268,
        "Latitude": 51.85211,
        "EnrichedAddress.Address": "Claudiuslaan 62, 6642 AG Beuningen, Netherlands",
        "EnrichedAddress.City": "Beuningen",
        "EnrichedAddress.Country": "Netherlands",
        "EnrichedAddress.CountryCode": "NL",
        "EnrichedAddress.County": "Beuningen",
        "EnrichedAddress.Latitude": 51.8521172,
        "EnrichedAddress.Longitude": 5.753268800000001,
        "EnrichedAddress.PostalCode": "6642 AG",
        "EnrichedAddress.ProcessCode": "OK",
        "EnrichedAddress.State": "Gelderland",
        "EnrichedAddress.StreetNumber": "62",
        "EnrichedAddress.StreetName": "Claudiuslaan"
      },
      {
        "SourceID": "8556AB#20#1",
        "PublisherID_Location": "BRINKS",
        "SourceID_Location": "8556001",
        "Address": "Koestraat 20",
        "City": "SLOTEN FR",
        "Zipcode": "8556AB",
        "FID_AddressType": 1,
        "Longitude": 5.64615,
        "Latitude": 52.89519,
        "EnrichedAddress.Address": "Koestraat 20, 8556 AB Sloten, Netherlands",
        "EnrichedAddress.City": "De Friese Meren",
        "EnrichedAddress.Country": "Netherlands",
        "EnrichedAddress.CountryCode": "NL",
        "EnrichedAddress.County": "Sloten",
        "EnrichedAddress.Latitude": 52.8951985,
        "EnrichedAddress.Longitude": 5.6461504,
        "EnrichedAddress.PostalCode": "8556 AB",
        "EnrichedAddress.ProcessCode": "OK",
        "EnrichedAddress.State": "Friesland",
        "EnrichedAddress.StreetNumber": "20",
        "EnrichedAddress.StreetName": "Koestraat"
      },
      {
        "SourceID": "7202BX#50#1",
        "PublisherID_Location": "BRINKS",
        "SourceID_Location": "7202001",
        "Address": "Pollaan 50 F",
        "City": "ZUTPHEN",
        "Zipcode": "7202BX",
        "FID_AddressType": 1,
        "Longitude": 6.201242,
        "Latitude": 52.15249,
        "EnrichedAddress.Address": "Pollaan 50F, 7202 BX Zutphen, Netherlands",
        "EnrichedAddress.City": "Zutphen",
        "EnrichedAddress.Country": "Netherlands",
        "EnrichedAddress.CountryCode": "NL",
        "EnrichedAddress.County": "Zutphen",
        "EnrichedAddress.Latitude": 52.1524915,
        "EnrichedAddress.Longitude": 6.201243,
        "EnrichedAddress.PostalCode": "7202 BX",
        "EnrichedAddress.ProcessCode": "OK",
        "EnrichedAddress.State": "Gelderland",
        "EnrichedAddress.StreetNumber": "50F",
        "EnrichedAddress.StreetName": "Pollaan"
      },
      {
        "SourceID": "3762EN#13#1",
        "PublisherID_Location": "BRINKS",
        "SourceID_Location": "3762001",
        "Address": "Weteringpad 13",
        "City": "SOEST",
        "Zipcode": "3762EN",
        "FID_AddressType": 1,
        "Longitude": 5.273505,
        "Latitude": 52.17892,
        "EnrichedAddress.Address": "Weteringpad 13, 3762 EN Soest, Netherlands",
        "EnrichedAddress.City": "Soest",
        "EnrichedAddress.Country": "Netherlands",
        "EnrichedAddress.CountryCode": "NL",
        "EnrichedAddress.County": "Soest",
        "EnrichedAddress.Latitude": 52.17892740000001,
        "EnrichedAddress.Longitude": 5.2735059,
        "EnrichedAddress.PostalCode": "3762 EN",
        "EnrichedAddress.ProcessCode": "OK",
        "EnrichedAddress.State": "Utrecht",
        "EnrichedAddress.StreetNumber": "13",
        "EnrichedAddress.StreetName": "Weteringpad"
      },
      {
        "SourceID": "3225LT#8#1",
        "PublisherID_Location": "BRINKS",
        "SourceID_Location": "3225001",
        "Address": "Einsteinweg 8",
        "City": "HELLEVOETSLUIS",
        "Zipcode": "3225LT",
        "FID_AddressType": 1,
        "Longitude": 4.168272,
        "Latitude": 51.83786,
        "EnrichedAddress.Address": "Einsteinweg 8, 3225 LT Hellevoetsluis, Netherlands",
        "EnrichedAddress.City": "Hellevoetsluis",
        "EnrichedAddress.Country": "Netherlands",
        "EnrichedAddress.CountryCode": "NL",
        "EnrichedAddress.County": "Hellevoetsluis",
        "EnrichedAddress.Latitude": 51.8378649,
        "EnrichedAddress.Longitude": 4.1682722,
        "EnrichedAddress.PostalCode": "3225 LT",
        "EnrichedAddress.ProcessCode": "OK",
        "EnrichedAddress.State": "Zuid-Holland",
        "EnrichedAddress.StreetNumber": "8",
        "EnrichedAddress.StreetName": "Einsteinweg"
      },
      {
        "SourceID": "9403VB#32#1",
        "PublisherID_Location": "BRINKS",
        "SourceID_Location": "9403001",
        "Address": "Stelmakerstraat 32",
        "City": "ASSEN",
        "Zipcode": "9403VB",
        "FID_AddressType": 1,
        "Longitude": 6.585779,
        "Latitude": 53.00949,
        "EnrichedAddress.Address": "Stelmakerstraat 32, 9403 VB Assen, Netherlands",
        "EnrichedAddress.City": "Assen",
        "EnrichedAddress.Country": "Netherlands",
        "EnrichedAddress.CountryCode": "NL",
        "EnrichedAddress.County": "Assen",
        "EnrichedAddress.Latitude": 53.00949420000001,
        "EnrichedAddress.Longitude": 6.5857797,
        "EnrichedAddress.PostalCode": "9403 VB",
        "EnrichedAddress.ProcessCode": "OK",
        "EnrichedAddress.State": "Drenthe",
        "EnrichedAddress.StreetNumber": "32",
        "EnrichedAddress.StreetName": "Stelmakerstraat"
      },
      {
        "SourceID": "2991XM#4#1",
        "PublisherID_Location": "BRINKS",
        "SourceID_Location": "2991001",
        "Address": "Lorentzweg 4",
        "City": "BARENDRECHT",
        "Zipcode": "2991XM",
        "FID_AddressType": 1,
        "Longitude": 4.545825,
        "Latitude": 51.86797,
        "EnrichedAddress.Address": "Lorentzweg 4, 2991 XM Barendrecht, Netherlands",
        "EnrichedAddress.City": "Barendrecht",
        "EnrichedAddress.Country": "Netherlands",
        "EnrichedAddress.CountryCode": "NL",
        "EnrichedAddress.County": "Barendrecht",
        "EnrichedAddress.Latitude": 51.8679724,
        "EnrichedAddress.Longitude": 4.5458259,
        "EnrichedAddress.PostalCode": "2991 XM",
        "EnrichedAddress.ProcessCode": "OK",
        "EnrichedAddress.State": "Zuid-Holland",
        "EnrichedAddress.StreetNumber": "4",
        "EnrichedAddress.StreetName": "Lorentzweg"
      },
      {
        "SourceID": "2411NC#2#1",
        "PublisherID_Location": "BRINKS",
        "SourceID_Location": "2411001",
        "Address": "Lemsteraak 2",
        "City": "BODEGRAVEN",
        "Zipcode": "2411NC",
        "FID_AddressType": 1,
        "Longitude": 4.738314,
        "Latitude": 52.08597,
        "EnrichedAddress.Address": "Lemsteraak 2, 2411 NC Bodegraven, Netherlands",
        "EnrichedAddress.City": "Bodegraven-Reeuwijk",
        "EnrichedAddress.Country": "Netherlands",
        "EnrichedAddress.CountryCode": "NL",
        "EnrichedAddress.County": "Bodegraven",
        "EnrichedAddress.Latitude": 52.0859769,
        "EnrichedAddress.Longitude": 4.7383143,
        "EnrichedAddress.PostalCode": "2411 NC",
        "EnrichedAddress.ProcessCode": "OK",
        "EnrichedAddress.State": "Zuid-Holland",
        "EnrichedAddress.StreetNumber": "2",
        "EnrichedAddress.StreetName": "Lemsteraak"
      },
      {
        "SourceID": "7552CR#127#1",
        "PublisherID_Location": "BRINKS",
        "SourceID_Location": "7552001",
        "Address": "Enschedesestraat 127",
        "City": "HENGELO OV",
        "Zipcode": "7552CR",
        "FID_AddressType": 1,
        "Longitude": 6.803306,
        "Latitude": 52.26233,
        "EnrichedAddress.Address": "Enschedesestraat 127, 7552 CR Hengelo, Netherlands",
        "EnrichedAddress.City": "Hengelo",
        "EnrichedAddress.Country": "Netherlands",
        "EnrichedAddress.CountryCode": "NL",
        "EnrichedAddress.County": "Hengelo",
        "EnrichedAddress.Latitude": 52.262334,
        "EnrichedAddress.Longitude": 6.803306900000001,
        "EnrichedAddress.PostalCode": "7552 CR",
        "EnrichedAddress.ProcessCode": "OK",
        "EnrichedAddress.State": "Overijssel",
        "EnrichedAddress.StreetNumber": "127",
        "EnrichedAddress.StreetName": "Enschedesestraat"
      },
      {
        "SourceID": "2984AB#20#1",
        "PublisherID_Location": "BRINKS",
        "SourceID_Location": "2984001",
        "Address": "Gieterijstraat 20",
        "City": "RIDDERKERK",
        "Zipcode": "2984AB",
        "FID_AddressType": 1,
        "Longitude": 4.606769,
        "Latitude": 51.87015,
        "EnrichedAddress.Address": "Gieterijstraat 20, 2984 AB Ridderkerk, Netherlands",
        "EnrichedAddress.City": "Ridderkerk",
        "EnrichedAddress.Country": "Netherlands",
        "EnrichedAddress.CountryCode": "NL",
        "EnrichedAddress.County": "Ridderkerk",
        "EnrichedAddress.Latitude": 51.8701538,
        "EnrichedAddress.Longitude": 4.606769100000001,
        "EnrichedAddress.PostalCode": "2984 AB",
        "EnrichedAddress.ProcessCode": "OK",
        "EnrichedAddress.State": "Zuid-Holland",
        "EnrichedAddress.StreetNumber": "20",
        "EnrichedAddress.StreetName": "Gieterijstraat"
      },
      {
        "SourceID": "2131AD#3236#1",
        "PublisherID_Location": "BRINKS",
        "SourceID_Location": "2131001",
        "Address": "Noordmeerstraat 32-36",
        "City": "HOOFDDORP",
        "Zipcode": "2131AD",
        "FID_AddressType": 1,
        "Longitude": 4.69492,
        "Latitude": 52.31524,
        "EnrichedAddress.Address": "Noordmeerstraat 32-36, 2131 AD Hoofddorp, Netherlands",
        "EnrichedAddress.City": "Haarlemmermeer",
        "EnrichedAddress.Country": "Netherlands",
        "EnrichedAddress.CountryCode": "NL",
        "EnrichedAddress.County": "Hoofddorp",
        "EnrichedAddress.Latitude": 52.31524630000001,
        "EnrichedAddress.Longitude": 4.6949207,
        "EnrichedAddress.PostalCode": "2131 AD",
        "EnrichedAddress.ProcessCode": "OK",
        "EnrichedAddress.State": "Noord-Holland",
        "EnrichedAddress.StreetNumber": "32-36",
        "EnrichedAddress.StreetName": "Noordmeerstraat"
      },
      {
        "SourceID": "4261DC#71#1",
        "PublisherID_Location": "BRINKS",
        "SourceID_Location": "4261001",
        "Address": "Markt 71",
        "City": "WIJK EN AALBURG",
        "Zipcode": "4261DC",
        "FID_AddressType": 1,
        "Longitude": null,
        "Latitude": null,
        "EnrichedAddress.Address": null,
        "EnrichedAddress.City": null,
        "EnrichedAddress.Country": null,
        "EnrichedAddress.CountryCode": null,
        "EnrichedAddress.County": null,
        "EnrichedAddress.Latitude": null,
        "EnrichedAddress.Longitude": null,
        "EnrichedAddress.PostalCode": null,
        "EnrichedAddress.ProcessCode": "ZERO_RESULTS",
        "EnrichedAddress.State": null,
        "EnrichedAddress.StreetNumber": null,
        "EnrichedAddress.StreetName": null
      },
      {
        "SourceID": "5625AA#3#1",
        "PublisherID_Location": "BRINKS",
        "SourceID_Location": "5625001",
        "Address": "Winkelcentrum Woensel 3",
        "City": "EINDHOVEN",
        "Zipcode": "5625AA",
        "FID_AddressType": 1,
        "Longitude": 5.477183,
        "Latitude": 51.46775,
        "EnrichedAddress.Address": "Winkelcentrum Woensel 3, 5625 AA Eindhoven, Netherlands",
        "EnrichedAddress.City": "Eindhoven",
        "EnrichedAddress.Country": "Netherlands",
        "EnrichedAddress.CountryCode": "NL",
        "EnrichedAddress.County": "Eindhoven",
        "EnrichedAddress.Latitude": 51.4677549,
        "EnrichedAddress.Longitude": 5.477183399999999,
        "EnrichedAddress.PostalCode": "5625 AA",
        "EnrichedAddress.ProcessCode": "OK",
        "EnrichedAddress.State": "Noord-Brabant",
        "EnrichedAddress.StreetNumber": "3",
        "EnrichedAddress.StreetName": "Winkelcentrum Woensel"
      },
      {
        "SourceID": "8701MC#102#1",
        "PublisherID_Location": "BRINKS",
        "SourceID_Location": "8701001",
        "Address": "De Marne 102",
        "City": "BOLSWARD",
        "Zipcode": "8701MC",
        "FID_AddressType": 1,
        "Longitude": 5.503923,
        "Latitude": 53.06361,
        "EnrichedAddress.Address": "De Marne 102, 8701 MC Bolsward, Netherlands",
        "EnrichedAddress.City": "S\\u00fadwest Frysl\\u00e2n",
        "EnrichedAddress.Country": "Netherlands",
        "EnrichedAddress.CountryCode": "NL",
        "EnrichedAddress.County": "Bolsward",
        "EnrichedAddress.Latitude": 53.0636118,
        "EnrichedAddress.Longitude": 5.5039237,
        "EnrichedAddress.PostalCode": "8701 MC",
        "EnrichedAddress.ProcessCode": "OK",
        "EnrichedAddress.State": "Friesland",
        "EnrichedAddress.StreetNumber": "102",
        "EnrichedAddress.StreetName": "De Marne"
      },
      {
        "SourceID": "7741KT#2#1",
        "PublisherID_Location": "BRINKS",
        "SourceID_Location": "7741001",
        "Address": "Monierweg 2 A",
        "City": "COEVORDEN",
        "Zipcode": "7741KT",
        "FID_AddressType": 1,
        "Longitude": 6.725681,
        "Latitude": 52.6583,
        "EnrichedAddress.Address": "Leeuwerikenveld, Monierweg 2, 7741 KT Coevorden, Netherlands",
        "EnrichedAddress.City": "Coevorden",
        "EnrichedAddress.Country": "Netherlands",
        "EnrichedAddress.CountryCode": "NL",
        "EnrichedAddress.County": "Coevorden",
        "EnrichedAddress.Latitude": 52.6583052,
        "EnrichedAddress.Longitude": 6.7256811,
        "EnrichedAddress.PostalCode": "7741 KT",
        "EnrichedAddress.ProcessCode": "OK",
        "EnrichedAddress.State": "Drenthe",
        "EnrichedAddress.StreetNumber": "2",
        "EnrichedAddress.StreetName": "Monierweg"
      },
      {
        "SourceID": "3751BT#53#1",
        "PublisherID_Location": "BRINKS",
        "SourceID_Location": "3751001",
        "Address": "De Ziel 53",
        "City": "BUNSCHOTEN SPAKENBURG",
        "Zipcode": "3751BT",
        "FID_AddressType": 1,
        "Longitude": 5.378767,
        "Latitude": 52.25171,
        "EnrichedAddress.Address": "De Ziel 53, 3751 BT Bunschoten-Spakenburg, Netherlands",
        "EnrichedAddress.City": "Bunschoten",
        "EnrichedAddress.Country": "Netherlands",
        "EnrichedAddress.CountryCode": "NL",
        "EnrichedAddress.County": "Bunschoten-Spakenburg",
        "EnrichedAddress.Latitude": 52.2517169,
        "EnrichedAddress.Longitude": 5.3787672,
        "EnrichedAddress.PostalCode": "3751 BT",
        "EnrichedAddress.ProcessCode": "OK",
        "EnrichedAddress.State": "Utrecht",
        "EnrichedAddress.StreetNumber": "53",
        "EnrichedAddress.StreetName": "De Ziel"
      },
      {
        "SourceID": "1431GE#49#1",
        "PublisherID_Location": "BRINKS",
        "SourceID_Location": "1431001",
        "Address": "Lakenblekerstraat 49 A",
        "City": "AALSMEER",
        "Zipcode": "1431GE",
        "FID_AddressType": 1,
        "Longitude": 4.778781,
        "Latitude": 52.25652,
        "EnrichedAddress.Address": "Lakenblekerstraat 49A, 1431 GE Aalsmeer, Netherlands",
        "EnrichedAddress.City": "Aalsmeer",
        "EnrichedAddress.Country": "Netherlands",
        "EnrichedAddress.CountryCode": "NL",
        "EnrichedAddress.County": "Aalsmeer",
        "EnrichedAddress.Latitude": 52.2565295,
        "EnrichedAddress.Longitude": 4.7787815,
        "EnrichedAddress.PostalCode": "1431 GE",
        "EnrichedAddress.ProcessCode": "OK",
        "EnrichedAddress.State": "Noord-Holland",
        "EnrichedAddress.StreetNumber": "49A",
        "EnrichedAddress.StreetName": "Lakenblekerstraat"
      },
      {
        "SourceID": "1096BD#31#1",
        "PublisherID_Location": "BRINKS",
        "SourceID_Location": "1096001",
        "Address": "Dani\\u00ebl Goedkoopstraat 31 E",
        "City": "AMSTERDAM",
        "Zipcode": "1096BD",
        "FID_AddressType": 1,
        "Longitude": 4.921927,
        "Latitude": 52.33624,
        "EnrichedAddress.Address": "Dani\\u00ebl Goedkoopstraat 31e, 1096 BD Amsterdam, Netherlands",
        "EnrichedAddress.City": "Amsterdam",
        "EnrichedAddress.Country": "Netherlands",
        "EnrichedAddress.CountryCode": "NL",
        "EnrichedAddress.County": "Amsterdam",
        "EnrichedAddress.Latitude": 52.3362493,
        "EnrichedAddress.Longitude": 4.9219276,
        "EnrichedAddress.PostalCode": "1096 BD",
        "EnrichedAddress.ProcessCode": "OK",
        "EnrichedAddress.State": "Noord-Holland",
        "EnrichedAddress.StreetNumber": "31e",
        "EnrichedAddress.StreetName": "Dani\\u00ebl Goedkoopstraat"
      },
      {
        "SourceID": "9561AC#5859#1",
        "PublisherID_Location": "BRINKS",
        "SourceID_Location": "9561001",
        "Address": "Viaductstraat 58-59",
        "City": "TER APEL",
        "Zipcode": "9561AC",
        "FID_AddressType": 1,
        "Longitude": 7.050284,
        "Latitude": 52.882,
        "EnrichedAddress.Address": "Viaductstraat 58, 9561 AC Ter Apel, Netherlands",
        "EnrichedAddress.City": "Westerwolde",
        "EnrichedAddress.Country": "Netherlands",
        "EnrichedAddress.CountryCode": "NL",
        "EnrichedAddress.County": "Ter Apel",
        "EnrichedAddress.Latitude": 52.8820005,
        "EnrichedAddress.Longitude": 7.0502842,
        "EnrichedAddress.PostalCode": "9561 AC",
        "EnrichedAddress.ProcessCode": "OK",
        "EnrichedAddress.State": "Groningen",
        "EnrichedAddress.StreetNumber": "58",
        "EnrichedAddress.StreetName": "Viaductstraat"
      },
      {
        "SourceID": "5628RD#11#1",
        "PublisherID_Location": "BRINKS",
        "SourceID_Location": "5628001",
        "Address": "Herentalsweg 11",
        "City": "EINDHOVEN",
        "Zipcode": "5628RD",
        "FID_AddressType": 1,
        "Longitude": 5.481199,
        "Latitude": 51.47671,
        "EnrichedAddress.Address": "Herentalsweg 11, 5628 RD Eindhoven, Netherlands",
        "EnrichedAddress.City": "Eindhoven",
        "EnrichedAddress.Country": "Netherlands",
        "EnrichedAddress.CountryCode": "NL",
        "EnrichedAddress.County": "Eindhoven",
        "EnrichedAddress.Latitude": 51.476712,
        "EnrichedAddress.Longitude": 5.4811995,
        "EnrichedAddress.PostalCode": "5628 RD",
        "EnrichedAddress.ProcessCode": "OK",
        "EnrichedAddress.State": "Noord-Brabant",
        "EnrichedAddress.StreetNumber": "11",
        "EnrichedAddress.StreetName": "Herentalsweg"
      },
      {
        "SourceID": "8531WC#8#1",
        "PublisherID_Location": "BRINKS",
        "SourceID_Location": "8531001",
        "Address": "Houtsaachmole 8",
        "City": "LEMMER",
        "Zipcode": "8531WC",
        "FID_AddressType": 1,
        "Longitude": 5.718737,
        "Latitude": 52.85416,
        "EnrichedAddress.Address": "Lemsterpark, Houtsaachmole 8, 8531 WC Lemmer, Netherlands",
        "EnrichedAddress.City": "De Friese Meren",
        "EnrichedAddress.Country": "Netherlands",
        "EnrichedAddress.CountryCode": "NL",
        "EnrichedAddress.County": "Lemmer",
        "EnrichedAddress.Latitude": 52.8541696,
        "EnrichedAddress.Longitude": 5.7187378,
        "EnrichedAddress.PostalCode": "8531 WC",
        "EnrichedAddress.ProcessCode": "OK",
        "EnrichedAddress.State": "Friesland",
        "EnrichedAddress.StreetNumber": "8",
        "EnrichedAddress.StreetName": "Houtsaachmole"
      },
      {
        "SourceID": "8801PN#16#1",
        "PublisherID_Location": "BRINKS",
        "SourceID_Location": "8801001",
        "Address": "Edisonstraat 16",
        "City": "FRANEKER",
        "Zipcode": "8801PN",
        "FID_AddressType": 1,
        "Longitude": 5.519192,
        "Latitude": 53.18346,
        "EnrichedAddress.Address": "Edisonstraat 16, 8801 PN Franeker, Netherlands",
        "EnrichedAddress.City": "Waadhoeke",
        "EnrichedAddress.Country": "Netherlands",
        "EnrichedAddress.CountryCode": "NL",
        "EnrichedAddress.County": "Franeker",
        "EnrichedAddress.Latitude": 53.1834626,
        "EnrichedAddress.Longitude": 5.519192299999999,
        "EnrichedAddress.PostalCode": "8801 PN",
        "EnrichedAddress.ProcessCode": "OK",
        "EnrichedAddress.State": "Friesland",
        "EnrichedAddress.StreetNumber": "16",
        "EnrichedAddress.StreetName": "Edisonstraat"
      },
      {
        "SourceID": "8912BH#2#1",
        "PublisherID_Location": "BRINKS",
        "SourceID_Location": "8912001",
        "Address": "Slauerhoffweg 2",
        "City": "LEEUWARDEN",
        "Zipcode": "8912BH",
        "FID_AddressType": 1,
        "Longitude": 5.767401,
        "Latitude": 53.19574,
        "EnrichedAddress.Address": "Leeuwarden West, Slauerhoffweg 2, 8912 BH Leeuwarden, Netherlands",
        "EnrichedAddress.City": "Leeuwarden",
        "EnrichedAddress.Country": "Netherlands",
        "EnrichedAddress.CountryCode": "NL",
        "EnrichedAddress.County": "Leeuwarden",
        "EnrichedAddress.Latitude": 53.1957495,
        "EnrichedAddress.Longitude": 5.7674014,
        "EnrichedAddress.PostalCode": "8912 BH",
        "EnrichedAddress.ProcessCode": "OK",
        "EnrichedAddress.State": "Friesland",
        "EnrichedAddress.StreetNumber": "2",
        "EnrichedAddress.StreetName": "Slauerhoffweg"
      },
      {
        "SourceID": "8447GG#3#1",
        "PublisherID_Location": "BRINKS",
        "SourceID_Location": "8447001",
        "Address": "Houtdraaier 3",
        "City": "HEERENVEEN",
        "Zipcode": "8447GG",
        "FID_AddressType": 1,
        "Longitude": 5.903931,
        "Latitude": 52.96543,
        "EnrichedAddress.Address": "Houtdraaier 3, 8447 GG Heerenveen, Netherlands",
        "EnrichedAddress.City": "Heerenveen",
        "EnrichedAddress.Country": "Netherlands",
        "EnrichedAddress.CountryCode": "NL",
        "EnrichedAddress.County": "Heerenveen",
        "EnrichedAddress.Latitude": 52.9654325,
        "EnrichedAddress.Longitude": 5.9039318,
        "EnrichedAddress.PostalCode": "8447 GG",
        "EnrichedAddress.ProcessCode": "OK",
        "EnrichedAddress.State": "Friesland",
        "EnrichedAddress.StreetNumber": "3",
        "EnrichedAddress.StreetName": "Houtdraaier"
      },
      {
        "SourceID": "9161CG#4#1",
        "PublisherID_Location": "BRINKS",
        "SourceID_Location": "9161001",
        "Address": "Fabrieksweg 4",
        "City": "HOLLUM",
        "Zipcode": "9161CG",
        "FID_AddressType": 1,
        "Longitude": 5.639878,
        "Latitude": 53.44226,
        "EnrichedAddress.Address": "Fabrieksweg 4, 9161 CG Hollum, Netherlands",
        "EnrichedAddress.City": "Ameland",
        "EnrichedAddress.Country": "Netherlands",
        "EnrichedAddress.CountryCode": "NL",
        "EnrichedAddress.County": "Hollum",
        "EnrichedAddress.Latitude": 53.4422624,
        "EnrichedAddress.Longitude": 5.639878,
        "EnrichedAddress.PostalCode": "9161 CG",
        "EnrichedAddress.ProcessCode": "OK",
        "EnrichedAddress.State": "Friesland",
        "EnrichedAddress.StreetNumber": "4",
        "EnrichedAddress.StreetName": "Fabrieksweg"
      },
      {
        "SourceID": "5482TN#26#1",
        "PublisherID_Location": "BRINKS",
        "SourceID_Location": "5482001",
        "Address": "Galvaniweg 26",
        "City": "SCHIJNDEL",
        "Zipcode": "5482TN",
        "FID_AddressType": 1,
        "Longitude": 5.476648,
        "Latitude": 51.61117,
        "EnrichedAddress.Address": "Galvaniweg 26, 5482 TN Schijndel, Netherlands",
        "EnrichedAddress.City": "Meierijstad Gemeente",
        "EnrichedAddress.Country": "Netherlands",
        "EnrichedAddress.CountryCode": "NL",
        "EnrichedAddress.County": "Schijndel",
        "EnrichedAddress.Latitude": 51.6111707,
        "EnrichedAddress.Longitude": 5.4766489,
        "EnrichedAddress.PostalCode": "5482 TN",
        "EnrichedAddress.ProcessCode": "OK",
        "EnrichedAddress.State": "Noord-Brabant",
        "EnrichedAddress.StreetNumber": "26",
        "EnrichedAddress.StreetName": "Galvaniweg"
      },
      {
        "SourceID": "2023BB#63#1",
        "PublisherID_Location": "BRINKS",
        "SourceID_Location": "2023001",
        "Address": "Verspronckweg 63 A",
        "City": "HAARLEM",
        "Zipcode": "2023BB",
        "FID_AddressType": 1,
        "Longitude": 4.626487,
        "Latitude": 52.38991,
        "EnrichedAddress.Address": "Verspronckweg 63A, 2023 BB Haarlem, Netherlands",
        "EnrichedAddress.City": "Haarlem",
        "EnrichedAddress.Country": "Netherlands",
        "EnrichedAddress.CountryCode": "NL",
        "EnrichedAddress.County": "Haarlem",
        "EnrichedAddress.Latitude": 52.3899123,
        "EnrichedAddress.Longitude": 4.6264877,
        "EnrichedAddress.PostalCode": "2023 BB",
        "EnrichedAddress.ProcessCode": "OK",
        "EnrichedAddress.State": "Noord-Holland",
        "EnrichedAddress.StreetNumber": "63A",
        "EnrichedAddress.StreetName": "Verspronckweg"
      },
      {
        "SourceID": "5261LL#2#1",
        "PublisherID_Location": "BRINKS",
        "SourceID_Location": "5261001",
        "Address": "De Schakel 2",
        "City": "VUGHT",
        "Zipcode": "5261LL",
        "FID_AddressType": 1,
        "Longitude": 5.294036,
        "Latitude": 51.64562,
        "EnrichedAddress.Address": "De Schakel 2, 5261 LL Vught, Netherlands",
        "EnrichedAddress.City": "Vught",
        "EnrichedAddress.Country": "Netherlands",
        "EnrichedAddress.CountryCode": "NL",
        "EnrichedAddress.County": "Vught",
        "EnrichedAddress.Latitude": 51.6456216,
        "EnrichedAddress.Longitude": 5.294036,
        "EnrichedAddress.PostalCode": "5261 LL",
        "EnrichedAddress.ProcessCode": "OK",
        "EnrichedAddress.State": "Noord-Brabant",
        "EnrichedAddress.StreetNumber": "2",
        "EnrichedAddress.StreetName": "De Schakel"
      },
      {
        "SourceID": "6541CX#2224#1",
        "PublisherID_Location": "BRINKS",
        "SourceID_Location": "6541001",
        "Address": "Energieweg 22-24",
        "City": "NIJMEGEN",
        "Zipcode": "6541CX",
        "FID_AddressType": 1,
        "Longitude": 5.828092,
        "Latitude": 51.84834,
        "EnrichedAddress.Address": "Oostkanaalhaven, Energieweg 22-24, 6541 CX Nijmegen, Netherlands",
        "EnrichedAddress.City": "Nijmegen",
        "EnrichedAddress.Country": "Netherlands",
        "EnrichedAddress.CountryCode": "NL",
        "EnrichedAddress.County": "Nijmegen",
        "EnrichedAddress.Latitude": 51.8483484,
        "EnrichedAddress.Longitude": 5.8280922,
        "EnrichedAddress.PostalCode": "6541 CX",
        "EnrichedAddress.ProcessCode": "OK",
        "EnrichedAddress.State": "Gelderland",
        "EnrichedAddress.StreetNumber": "22-24",
        "EnrichedAddress.StreetName": "Energieweg"
      },
      {
        "SourceID": "5705AE#217#1",
        "PublisherID_Location": "BRINKS",
        "SourceID_Location": "5705001",
        "Address": "Engelseweg 217",
        "City": "HELMOND",
        "Zipcode": "5705AE",
        "FID_AddressType": 1,
        "Longitude": 5.679684,
        "Latitude": 51.47195,
        "EnrichedAddress.Address": "Bokhorst, Engelseweg 217, 5705 AE Helmond, Netherlands",
        "EnrichedAddress.City": "Helmond",
        "EnrichedAddress.Country": "Netherlands",
        "EnrichedAddress.CountryCode": "NL",
        "EnrichedAddress.County": "Helmond",
        "EnrichedAddress.Latitude": 51.4719521,
        "EnrichedAddress.Longitude": 5.6796845,
        "EnrichedAddress.PostalCode": "5705 AE",
        "EnrichedAddress.ProcessCode": "OK",
        "EnrichedAddress.State": "Noord-Brabant",
        "EnrichedAddress.StreetNumber": "217",
        "EnrichedAddress.StreetName": "Engelseweg"
      },
      {
        "SourceID": "3641RM#38#1",
        "PublisherID_Location": "BRINKS",
        "SourceID_Location": "3641001",
        "Address": "Industrieweg 38",
        "City": "MIJDRECHT",
        "Zipcode": "3641RM",
        "FID_AddressType": 1,
        "Longitude": 4.874915,
        "Latitude": 52.2059,
        "EnrichedAddress.Address": "Industrieweg 38, 3641 RM Mijdrecht, Netherlands",
        "EnrichedAddress.City": "De Ronde Venen",
        "EnrichedAddress.Country": "Netherlands",
        "EnrichedAddress.CountryCode": "NL",
        "EnrichedAddress.County": "Mijdrecht",
        "EnrichedAddress.Latitude": 52.20590019999999,
        "EnrichedAddress.Longitude": 4.8749156,
        "EnrichedAddress.PostalCode": "3641 RM",
        "EnrichedAddress.ProcessCode": "OK",
        "EnrichedAddress.State": "Utrecht",
        "EnrichedAddress.StreetNumber": "38",
        "EnrichedAddress.StreetName": "Industrieweg"
      },
      {
        "SourceID": "1216BX#30#1",
        "PublisherID_Location": "BRINKS",
        "SourceID_Location": "1216001",
        "Address": "Verlengde Zuiderloswal 30",
        "City": "HILVERSUM",
        "Zipcode": "1216BX",
        "FID_AddressType": 1,
        "Longitude": 5.150527,
        "Latitude": 52.2227,
        "EnrichedAddress.Address": "Verlengde Zuiderloswal 30, 1216 BW Hilversum, Netherlands",
        "EnrichedAddress.City": "Hilversum",
        "EnrichedAddress.Country": "Netherlands",
        "EnrichedAddress.CountryCode": "NL",
        "EnrichedAddress.County": "Hilversum",
        "EnrichedAddress.Latitude": 52.2227004,
        "EnrichedAddress.Longitude": 5.1505271,
        "EnrichedAddress.PostalCode": "1216 BW",
        "EnrichedAddress.ProcessCode": "OK",
        "EnrichedAddress.State": "Noord-Holland",
        "EnrichedAddress.StreetNumber": "30",
        "EnrichedAddress.StreetName": "Verlengde Zuiderloswal"
      },
      {
        "SourceID": "9951SJ#3#1",
        "PublisherID_Location": "BRINKS",
        "SourceID_Location": "9951001",
        "Address": "Het Aanleg 3",
        "City": "WINSUM GN",
        "Zipcode": "9951SJ",
        "FID_AddressType": 1,
        "Longitude": 6.508448,
        "Latitude": 53.33477,
        "EnrichedAddress.Address": "Sportcomplex Schouwerzijlsterweg, Het Aanleg 3, 9951 SJ Winsum, Netherlands",
        "EnrichedAddress.City": "Het Hogeland",
        "EnrichedAddress.Country": "Netherlands",
        "EnrichedAddress.CountryCode": "NL",
        "EnrichedAddress.County": "Winsum",
        "EnrichedAddress.Latitude": 53.3347701,
        "EnrichedAddress.Longitude": 6.5084483,
        "EnrichedAddress.PostalCode": "9951 SJ",
        "EnrichedAddress.ProcessCode": "OK",
        "EnrichedAddress.State": "Groningen",
        "EnrichedAddress.StreetNumber": "3",
        "EnrichedAddress.StreetName": "Het Aanleg"
      },
      {
        "SourceID": "7901ED#10#1",
        "PublisherID_Location": "BRINKS",
        "SourceID_Location": "7901001",
        "Address": "Groenewegenstraat 10",
        "City": "HOOGEVEEN",
        "Zipcode": "7901ED",
        "FID_AddressType": 1,
        "Longitude": 6.466311,
        "Latitude": 52.72439,
        "EnrichedAddress.Address": "Groenewegenstraat 10, 7901 ED Hoogeveen, Netherlands",
        "EnrichedAddress.City": "Hoogeveen",
        "EnrichedAddress.Country": "Netherlands",
        "EnrichedAddress.CountryCode": "NL",
        "EnrichedAddress.County": "Hoogeveen",
        "EnrichedAddress.Latitude": 52.72439499999999,
        "EnrichedAddress.Longitude": 6.466311399999999,
        "EnrichedAddress.PostalCode": "7901 ED",
        "EnrichedAddress.ProcessCode": "OK",
        "EnrichedAddress.State": "Drenthe",
        "EnrichedAddress.StreetNumber": "10",
        "EnrichedAddress.StreetName": "Groenewegenstraat"
      },
      {
        "SourceID": "8919AA#149#1",
        "PublisherID_Location": "BRINKS",
        "SourceID_Location": "8919001",
        "Address": "P.J. Troelstraweg 149 A",
        "City": "LEEUWARDEN",
        "Zipcode": "8919AA",
        "FID_AddressType": 1,
        "Longitude": 5.77954,
        "Latitude": 53.21569,
        "EnrichedAddress.Address": "Meester P.J. Troelstraweg 149A, 8919 AA Leeuwarden, Netherlands",
        "EnrichedAddress.City": "Leeuwarden",
        "EnrichedAddress.Country": "Netherlands",
        "EnrichedAddress.CountryCode": "NL",
        "EnrichedAddress.County": "Leeuwarden",
        "EnrichedAddress.Latitude": 53.2156972,
        "EnrichedAddress.Longitude": 5.7795402,
        "EnrichedAddress.PostalCode": "8919 AA",
        "EnrichedAddress.ProcessCode": "OK",
        "EnrichedAddress.State": "Friesland",
        "EnrichedAddress.StreetNumber": "149A",
        "EnrichedAddress.StreetName": "Meester P.J. Troelstraweg"
      },
      {
        "SourceID": "1032KK#3133#1",
        "PublisherID_Location": "BRINKS",
        "SourceID_Location": "1032001",
        "Address": "Klaprozenweg 31-33",
        "City": "AMSTERDAM",
        "Zipcode": "1032KK",
        "FID_AddressType": 1,
        "Longitude": 4.907717,
        "Latitude": 52.39767,
        "EnrichedAddress.Address": "Klaprozenweg 31, 1032 KK Amsterdam, Netherlands",
        "EnrichedAddress.City": "Amsterdam",
        "EnrichedAddress.Country": "Netherlands",
        "EnrichedAddress.CountryCode": "NL",
        "EnrichedAddress.County": "Amsterdam",
        "EnrichedAddress.Latitude": 52.39767020000001,
        "EnrichedAddress.Longitude": 4.9077173,
        "EnrichedAddress.PostalCode": "1032 KK",
        "EnrichedAddress.ProcessCode": "OK",
        "EnrichedAddress.State": "Noord-Holland",
        "EnrichedAddress.StreetNumber": "31",
        "EnrichedAddress.StreetName": "Klaprozenweg"
      },
      {
        "SourceID": "2181MH#14#1",
        "PublisherID_Location": "BRINKS",
        "SourceID_Location": "2181001",
        "Address": "Satellietbaan 14",
        "City": "HILLEGOM",
        "Zipcode": "2181MH",
        "FID_AddressType": 1,
        "Longitude": 4.588372,
        "Latitude": 52.30108,
        "EnrichedAddress.Address": "Satellietbaan 14, 2181 MH Hillegom, Netherlands",
        "EnrichedAddress.City": "Hillegom",
        "EnrichedAddress.Country": "Netherlands",
        "EnrichedAddress.CountryCode": "NL",
        "EnrichedAddress.County": "Hillegom",
        "EnrichedAddress.Latitude": 52.3010809,
        "EnrichedAddress.Longitude": 4.5883729,
        "EnrichedAddress.PostalCode": "2181 MH",
        "EnrichedAddress.ProcessCode": "OK",
        "EnrichedAddress.State": "Zuid-Holland",
        "EnrichedAddress.StreetNumber": "14",
        "EnrichedAddress.StreetName": "Satellietbaan"
      },
      {
        "SourceID": "6716AD#3#1",
        "PublisherID_Location": "BRINKS",
        "SourceID_Location": "6716001",
        "Address": "Lorentzstraat 3",
        "City": "EDE GLD",
        "Zipcode": "6716AD",
        "FID_AddressType": 1,
        "Longitude": 5.645729,
        "Latitude": 52.02963,
        "EnrichedAddress.Address": "Lorentzstraat 3, 6716 AD Ede, Netherlands",
        "EnrichedAddress.City": "Ede",
        "EnrichedAddress.Country": "Netherlands",
        "EnrichedAddress.CountryCode": "NL",
        "EnrichedAddress.County": "Ede",
        "EnrichedAddress.Latitude": 52.0296324,
        "EnrichedAddress.Longitude": 5.6457292,
        "EnrichedAddress.PostalCode": "6716 AD",
        "EnrichedAddress.ProcessCode": "OK",
        "EnrichedAddress.State": "Gelderland",
        "EnrichedAddress.StreetNumber": "3",
        "EnrichedAddress.StreetName": "Lorentzstraat"
      },
      {
        "SourceID": "7901ED#1115#1",
        "PublisherID_Location": "BRINKS",
        "SourceID_Location": "7901001",
        "Address": "Groenewegenstraat 11-15",
        "City": "HOOGEVEEN",
        "Zipcode": "7901ED",
        "FID_AddressType": 1,
        "Longitude": 6.466277,
        "Latitude": 52.72402,
        "EnrichedAddress.Address": "Groenewegenstraat 11-15, 7901 ED Hoogeveen, Netherlands",
        "EnrichedAddress.City": "Hoogeveen",
        "EnrichedAddress.Country": "Netherlands",
        "EnrichedAddress.CountryCode": "NL",
        "EnrichedAddress.County": "Hoogeveen",
        "EnrichedAddress.Latitude": 52.72402,
        "EnrichedAddress.Longitude": 6.4662775,
        "EnrichedAddress.PostalCode": "7901 ED",
        "EnrichedAddress.ProcessCode": "OK",
        "EnrichedAddress.State": "Drenthe",
        "EnrichedAddress.StreetNumber": "11-15",
        "EnrichedAddress.StreetName": "Groenewegenstraat"
      },
      {
        "SourceID": "9251MN#6#1",
        "PublisherID_Location": "BRINKS",
        "SourceID_Location": "9251001",
        "Address": "Elingsloane 6",
        "City": "BURGUM",
        "Zipcode": "9251MN",
        "FID_AddressType": 1,
        "Longitude": 5.983895,
        "Latitude": 53.20439,
        "EnrichedAddress.Address": "Elingsloane 6, 9251 MN Burgum, Netherlands",
        "EnrichedAddress.City": "Tytsjerksteradiel",
        "EnrichedAddress.Country": "Netherlands",
        "EnrichedAddress.CountryCode": "NL",
        "EnrichedAddress.County": "Burgum",
        "EnrichedAddress.Latitude": 53.2043973,
        "EnrichedAddress.Longitude": 5.983895,
        "EnrichedAddress.PostalCode": "9251 MN",
        "EnrichedAddress.ProcessCode": "OK",
        "EnrichedAddress.State": "Friesland",
        "EnrichedAddress.StreetNumber": "6",
        "EnrichedAddress.StreetName": "Elingsloane"
      },
      {
        "SourceID": "6825MP#131#1",
        "PublisherID_Location": "BRINKS",
        "SourceID_Location": "6825001",
        "Address": "Delta 131",
        "City": "ARNHEM",
        "Zipcode": "6825MP",
        "FID_AddressType": 1,
        "Longitude": null,
        "Latitude": null,
        "EnrichedAddress.Address": null,
        "EnrichedAddress.City": null,
        "EnrichedAddress.Country": null,
        "EnrichedAddress.CountryCode": null,
        "EnrichedAddress.County": null,
        "EnrichedAddress.Latitude": null,
        "EnrichedAddress.Longitude": null,
        "EnrichedAddress.PostalCode": null,
        "EnrichedAddress.ProcessCode": "ZERO_RESULTS",
        "EnrichedAddress.State": null,
        "EnrichedAddress.StreetNumber": null,
        "EnrichedAddress.StreetName": null
      },
      {
        "SourceID": "8471XW#3#1",
        "PublisherID_Location": "BRINKS",
        "SourceID_Location": "8471001",
        "Address": "Jachtwerfstraat 3",
        "City": "WOLVEGA",
        "Zipcode": "8471XW",
        "FID_AddressType": 1,
        "Longitude": 5.986815,
        "Latitude": 52.88227,
        "EnrichedAddress.Address": "Jachtwerfstraat 3, 8471 XW Wolvega, Netherlands",
        "EnrichedAddress.City": "Weststellingwerf",
        "EnrichedAddress.Country": "Netherlands",
        "EnrichedAddress.CountryCode": "NL",
        "EnrichedAddress.County": "Wolvega",
        "EnrichedAddress.Latitude": 52.8822723,
        "EnrichedAddress.Longitude": 5.986815399999999,
        "EnrichedAddress.PostalCode": "8471 XW",
        "EnrichedAddress.ProcessCode": "OK",
        "EnrichedAddress.State": "Friesland",
        "EnrichedAddress.StreetNumber": "3",
        "EnrichedAddress.StreetName": "Jachtwerfstraat"
      },
      {
        "SourceID": "8501XL#2#1",
        "PublisherID_Location": "BRINKS",
        "SourceID_Location": "8501001",
        "Address": "Firmawei 2",
        "City": "JOURE",
        "Zipcode": "8501XL",
        "FID_AddressType": 1,
        "Longitude": 5.823318,
        "Latitude": 52.96419,
        "EnrichedAddress.Address": "Sewei, Firmawei 2, 8501 XL Joure, Netherlands",
        "EnrichedAddress.City": "De Friese Meren",
        "EnrichedAddress.Country": "Netherlands",
        "EnrichedAddress.CountryCode": "NL",
        "EnrichedAddress.County": "Joure",
        "EnrichedAddress.Latitude": 52.9641952,
        "EnrichedAddress.Longitude": 5.8233182,
        "EnrichedAddress.PostalCode": "8501 XL",
        "EnrichedAddress.ProcessCode": "OK",
        "EnrichedAddress.State": "Friesland",
        "EnrichedAddress.StreetNumber": "2",
        "EnrichedAddress.StreetName": "Firmawei"
      },
      {
        "SourceID": "1401GP#418#1",
        "PublisherID_Location": "BRINKS",
        "SourceID_Location": "1401001",
        "Address": "De Nieuwe Vaart 4-18",
        "City": "BUSSUM",
        "Zipcode": "1401GP",
        "FID_AddressType": 1,
        "Longitude": 5.164721,
        "Latitude": 52.28428,
        "EnrichedAddress.Address": "De Nieuwe Vaart 4-18, 1401 GP Bussum, Netherlands",
        "EnrichedAddress.City": "Gooise Meren",
        "EnrichedAddress.Country": "Netherlands",
        "EnrichedAddress.CountryCode": "NL",
        "EnrichedAddress.County": "Bussum",
        "EnrichedAddress.Latitude": 52.2842819,
        "EnrichedAddress.Longitude": 5.164721,
        "EnrichedAddress.PostalCode": "1401 GP",
        "EnrichedAddress.ProcessCode": "OK",
        "EnrichedAddress.State": "Noord-Holland",
        "EnrichedAddress.StreetNumber": "4-18",
        "EnrichedAddress.StreetName": "De Nieuwe Vaart"
      },
      {
        "SourceID": "1131WV#30#1",
        "PublisherID_Location": "BRINKS",
        "SourceID_Location": "1131001",
        "Address": "Burgemeester van Baarstraat 30",
        "City": "VOLENDAM",
        "Zipcode": "1131WV",
        "FID_AddressType": 1,
        "Longitude": 5.071338,
        "Latitude": 52.49976,
        "EnrichedAddress.Address": "Burgemeester van Baarstraat 30, 1131 WV Volendam, Netherlands",
        "EnrichedAddress.City": "Edam-Volendam",
        "EnrichedAddress.Country": "Netherlands",
        "EnrichedAddress.CountryCode": "NL",
        "EnrichedAddress.County": "Volendam",
        "EnrichedAddress.Latitude": 52.49976110000001,
        "EnrichedAddress.Longitude": 5.0713385,
        "EnrichedAddress.PostalCode": "1131 WV",
        "EnrichedAddress.ProcessCode": "OK",
        "EnrichedAddress.State": "Noord-Holland",
        "EnrichedAddress.StreetNumber": "30",
        "EnrichedAddress.StreetName": "Burgemeester van Baarstraat"
      },
      {
        "SourceID": "9723BX#114#1",
        "PublisherID_Location": "BRINKS",
        "SourceID_Location": "9723001",
        "Address": "Osloweg 114",
        "City": "GRONINGEN",
        "Zipcode": "9723BX",
        "FID_AddressType": 1,
        "Longitude": 6.602991,
        "Latitude": 53.2171,
        "EnrichedAddress.Address": "Osloweg 114, 9723 BX Groningen, Netherlands",
        "EnrichedAddress.City": "Groningen",
        "EnrichedAddress.Country": "Netherlands",
        "EnrichedAddress.CountryCode": "NL",
        "EnrichedAddress.County": "Groningen",
        "EnrichedAddress.Latitude": 53.21710400000001,
        "EnrichedAddress.Longitude": 6.6029915,
        "EnrichedAddress.PostalCode": "9723 BX",
        "EnrichedAddress.ProcessCode": "OK",
        "EnrichedAddress.State": "Groningen",
        "EnrichedAddress.StreetNumber": "114",
        "EnrichedAddress.StreetName": "Osloweg"
      },
      {
        "SourceID": "7005AG#138#1",
        "PublisherID_Location": "BRINKS",
        "SourceID_Location": "7005001",
        "Address": "Havenstraat 138",
        "City": "DOETINCHEM",
        "Zipcode": "7005AG",
        "FID_AddressType": 1,
        "Longitude": 6.305297,
        "Latitude": 51.94749,
        "EnrichedAddress.Address": "Havenstraat 138, 7005 AG Doetinchem, Netherlands",
        "EnrichedAddress.City": "Doetinchem",
        "EnrichedAddress.Country": "Netherlands",
        "EnrichedAddress.CountryCode": "NL",
        "EnrichedAddress.County": "Doetinchem",
        "EnrichedAddress.Latitude": 51.9474988,
        "EnrichedAddress.Longitude": 6.305297599999999,
        "EnrichedAddress.PostalCode": "7005 AG",
        "EnrichedAddress.ProcessCode": "OK",
        "EnrichedAddress.State": "Gelderland",
        "EnrichedAddress.StreetNumber": "138",
        "EnrichedAddress.StreetName": "Havenstraat"
      },
      {
        "SourceID": "3562KA#18#1",
        "PublisherID_Location": "BRINKS",
        "SourceID_Location": "3562001",
        "Address": "Roelantdreef 18",
        "City": "UTRECHT",
        "Zipcode": "3562KA",
        "FID_AddressType": 1,
        "Longitude": 5.111762,
        "Latitude": 52.11401,
        "EnrichedAddress.Address": "Roelantdreef 18, 3562 KA Utrecht, Netherlands",
        "EnrichedAddress.City": "Utrecht",
        "EnrichedAddress.Country": "Netherlands",
        "EnrichedAddress.CountryCode": "NL",
        "EnrichedAddress.County": "Utrecht",
        "EnrichedAddress.Latitude": 52.1140195,
        "EnrichedAddress.Longitude": 5.1117624,
        "EnrichedAddress.PostalCode": "3562 KA",
        "EnrichedAddress.ProcessCode": "OK",
        "EnrichedAddress.State": "Utrecht",
        "EnrichedAddress.StreetNumber": "18",
        "EnrichedAddress.StreetName": "Roelantdreef"
      },
      {
        "SourceID": "2908LB#11#1",
        "PublisherID_Location": "BRINKS",
        "SourceID_Location": "2908001",
        "Address": "Hoofdweg 11",
        "City": "CAPELLE AAN DEN IJSSEL",
        "Zipcode": "2908LB",
        "FID_AddressType": 1,
        "Longitude": 4.570818,
        "Latitude": 51.95459,
        "EnrichedAddress.Address": "Hoofdweg 11, 2908 LB Capelle aan den IJssel, Netherlands",
        "EnrichedAddress.City": "Capelle aan Den IJssel",
        "EnrichedAddress.Country": "Netherlands",
        "EnrichedAddress.CountryCode": "NL",
        "EnrichedAddress.County": "Capelle aan den IJssel",
        "EnrichedAddress.Latitude": 51.9545964,
        "EnrichedAddress.Longitude": 4.5708185,
        "EnrichedAddress.PostalCode": "2908 LB",
        "EnrichedAddress.ProcessCode": "OK",
        "EnrichedAddress.State": "Zuid-Holland",
        "EnrichedAddress.StreetNumber": "11",
        "EnrichedAddress.StreetName": "Hoofdweg"
      },
      {
        "SourceID": "1791WZ#10#1",
        "PublisherID_Location": "BRINKS",
        "SourceID_Location": "1791001",
        "Address": "Abbewaal 10",
        "City": "DEN BURG",
        "Zipcode": "1791WZ",
        "FID_AddressType": 1,
        "Longitude": 4.80364,
        "Latitude": 53.06296,
        "EnrichedAddress.Address": "Abbewaal 10, 1791 WZ Den Burg, Netherlands",
        "EnrichedAddress.City": "Texel",
        "EnrichedAddress.Country": "Netherlands",
        "EnrichedAddress.CountryCode": "NL",
        "EnrichedAddress.County": "Den Burg",
        "EnrichedAddress.Latitude": 53.0629622,
        "EnrichedAddress.Longitude": 4.8036409,
        "EnrichedAddress.PostalCode": "1791 WZ",
        "EnrichedAddress.ProcessCode": "OK",
        "EnrichedAddress.State": "Noord-Holland",
        "EnrichedAddress.StreetNumber": "10",
        "EnrichedAddress.StreetName": "Abbewaal"
      },
      {
        "SourceID": "5666RZ#30#1",
        "PublisherID_Location": "BRINKS",
        "SourceID_Location": "5666001",
        "Address": "De Bleekvelden 30",
        "City": "GELDROP",
        "Zipcode": "5666RZ",
        "FID_AddressType": 1,
        "Longitude": 5.5646,
        "Latitude": 51.42463,
        "EnrichedAddress.Address": "De Bleekvelden 30, 5666 RZ Geldrop, Netherlands",
        "EnrichedAddress.City": "Geldrop-Mierlo",
        "EnrichedAddress.Country": "Netherlands",
        "EnrichedAddress.CountryCode": "NL",
        "EnrichedAddress.County": "Geldrop",
        "EnrichedAddress.Latitude": 51.4246335,
        "EnrichedAddress.Longitude": 5.5646008,
        "EnrichedAddress.PostalCode": "5666 RZ",
        "EnrichedAddress.ProcessCode": "OK",
        "EnrichedAddress.State": "Noord-Brabant",
        "EnrichedAddress.StreetNumber": "30",
        "EnrichedAddress.StreetName": "De Bleekvelden"
      },
      {
        "SourceID": "7575BJ#2#1",
        "PublisherID_Location": "BRINKS",
        "SourceID_Location": "7575001",
        "Address": "Nijverheidsstraat 2",
        "City": "OLDENZAAL",
        "Zipcode": "7575BJ",
        "FID_AddressType": 1,
        "Longitude": 6.925022,
        "Latitude": 52.2973,
        "EnrichedAddress.Address": "Nijverheidsstraat 2, 7575 BJ Oldenzaal, Netherlands",
        "EnrichedAddress.City": "Oldenzaal",
        "EnrichedAddress.Country": "Netherlands",
        "EnrichedAddress.CountryCode": "NL",
        "EnrichedAddress.County": "Oldenzaal",
        "EnrichedAddress.Latitude": 52.2973043,
        "EnrichedAddress.Longitude": 6.925022299999999,
        "EnrichedAddress.PostalCode": "7575 BJ",
        "EnrichedAddress.ProcessCode": "OK",
        "EnrichedAddress.State": "Overijssel",
        "EnrichedAddress.StreetNumber": "2",
        "EnrichedAddress.StreetName": "Nijverheidsstraat"
      },
      {
        "SourceID": "4336RA#8#1",
        "PublisherID_Location": "BRINKS",
        "SourceID_Location": "4336001",
        "Address": "Mortiereboulevard 8",
        "City": "MIDDELBURG",
        "Zipcode": "4336RA",
        "FID_AddressType": 1,
        "Longitude": 3.623054,
        "Latitude": 51.4807,
        "EnrichedAddress.Address": "Mortiereboulevard 8, 4336 RA Middelburg, Netherlands",
        "EnrichedAddress.City": "Middelburg",
        "EnrichedAddress.Country": "Netherlands",
        "EnrichedAddress.CountryCode": "NL",
        "EnrichedAddress.County": "Middelburg",
        "EnrichedAddress.Latitude": 51.4807071,
        "EnrichedAddress.Longitude": 3.6230547,
        "EnrichedAddress.PostalCode": "4336 RA",
        "EnrichedAddress.ProcessCode": "OK",
        "EnrichedAddress.State": "Zeeland",
        "EnrichedAddress.StreetNumber": "8",
        "EnrichedAddress.StreetName": "Mortiereboulevard"
      },
      {
        "SourceID": "2651JX#1#1",
        "PublisherID_Location": "BRINKS",
        "SourceID_Location": "2651001",
        "Address": "Berkelse Poort 1",
        "City": "BERKEL EN RODENRIJS",
        "Zipcode": "2651JX",
        "FID_AddressType": 1,
        "Longitude": 4.474676,
        "Latitude": 51.9901,
        "EnrichedAddress.Address": "Berkelse Poort 1, 2651 JX Berkel en Rodenrijs, Netherlands",
        "EnrichedAddress.City": "Lansingerland",
        "EnrichedAddress.Country": "Netherlands",
        "EnrichedAddress.CountryCode": "NL",
        "EnrichedAddress.County": "Berkel en Rodenrijs",
        "EnrichedAddress.Latitude": 51.9901057,
        "EnrichedAddress.Longitude": 4.4746766,
        "EnrichedAddress.PostalCode": "2651 JX",
        "EnrichedAddress.ProcessCode": "OK",
        "EnrichedAddress.State": "Zuid-Holland",
        "EnrichedAddress.StreetNumber": "1",
        "EnrichedAddress.StreetName": "Berkelse Poort"
      },
      {
        "SourceID": "1012WR#2#1",
        "PublisherID_Location": "BRINKS",
        "SourceID_Location": "1012001",
        "Address": "Muntplein 2",
        "City": "AMSTERDAM",
        "Zipcode": "1012WR",
        "FID_AddressType": 1,
        "Longitude": 4.89321,
        "Latitude": 52.36737,
        "EnrichedAddress.Address": "Muntplein 2, 1012 WR Amsterdam, Netherlands",
        "EnrichedAddress.City": "Amsterdam",
        "EnrichedAddress.Country": "Netherlands",
        "EnrichedAddress.CountryCode": "NL",
        "EnrichedAddress.County": "Amsterdam",
        "EnrichedAddress.Latitude": 52.3673765,
        "EnrichedAddress.Longitude": 4.8932107,
        "EnrichedAddress.PostalCode": "1012 WR",
        "EnrichedAddress.ProcessCode": "OK",
        "EnrichedAddress.State": "Noord-Holland",
        "EnrichedAddress.StreetNumber": "2",
        "EnrichedAddress.StreetName": "Muntplein"
      },
      {
        "SourceID": "5347KM#4#1",
        "PublisherID_Location": "BRINKS",
        "SourceID_Location": "5347001",
        "Address": "Kanaalstraat 4",
        "City": "OSS",
        "Zipcode": "5347KM",
        "FID_AddressType": 1,
        "Longitude": 5.540186,
        "Latitude": 51.77992,
        "EnrichedAddress.Address": "Kanaalstraat 4, 5347 KM Oss, Netherlands",
        "EnrichedAddress.City": "Oss",
        "EnrichedAddress.Country": "Netherlands",
        "EnrichedAddress.CountryCode": "NL",
        "EnrichedAddress.County": "Oss",
        "EnrichedAddress.Latitude": 51.7799215,
        "EnrichedAddress.Longitude": 5.5401865,
        "EnrichedAddress.PostalCode": "5347 KM",
        "EnrichedAddress.ProcessCode": "OK",
        "EnrichedAddress.State": "Noord-Brabant",
        "EnrichedAddress.StreetNumber": "4",
        "EnrichedAddress.StreetName": "Kanaalstraat"
      },
      {
        "SourceID": "7821CA#30#1",
        "PublisherID_Location": "BRINKS",
        "SourceID_Location": "7821001",
        "Address": "Nijbracht 30",
        "City": "EMMEN",
        "Zipcode": "7821CA",
        "FID_AddressType": 1,
        "Longitude": 6.906623,
        "Latitude": 52.7624,
        "EnrichedAddress.Address": "Nijbracht 30, 7821 CA Emmen, Netherlands",
        "EnrichedAddress.City": "Emmen",
        "EnrichedAddress.Country": "Netherlands",
        "EnrichedAddress.CountryCode": "NL",
        "EnrichedAddress.County": "Emmen",
        "EnrichedAddress.Latitude": 52.7624039,
        "EnrichedAddress.Longitude": 6.906623499999999,
        "EnrichedAddress.PostalCode": "7821 CA",
        "EnrichedAddress.ProcessCode": "OK",
        "EnrichedAddress.State": "Drenthe",
        "EnrichedAddress.StreetNumber": "30",
        "EnrichedAddress.StreetName": "Nijbracht"
      },
      {
        "SourceID": "1969NA#1517#1",
        "PublisherID_Location": "BRINKS",
        "SourceID_Location": "1969001",
        "Address": "De Smidse 15-17",
        "City": "HEEMSKERK",
        "Zipcode": "1969NA",
        "FID_AddressType": 1,
        "Longitude": 4.651832,
        "Latitude": 52.50285,
        "EnrichedAddress.Address": "De Smidse 15-17, 1969 NA Heemskerk, Netherlands",
        "EnrichedAddress.City": "Heemskerk",
        "EnrichedAddress.Country": "Netherlands",
        "EnrichedAddress.CountryCode": "NL",
        "EnrichedAddress.County": "Heemskerk",
        "EnrichedAddress.Latitude": 52.5028572,
        "EnrichedAddress.Longitude": 4.6518322,
        "EnrichedAddress.PostalCode": "1969 NA",
        "EnrichedAddress.ProcessCode": "OK",
        "EnrichedAddress.State": "Noord-Holland",
        "EnrichedAddress.StreetNumber": "15-17",
        "EnrichedAddress.StreetName": "De Smidse"
      },
      {
        "SourceID": "6562AV#24#1",
        "PublisherID_Location": "BRINKS",
        "SourceID_Location": "6562001",
        "Address": "Ambachtsweg 24",
        "City": "GROESBEEK",
        "Zipcode": "6562AV",
        "FID_AddressType": 1,
        "Longitude": 5.944327,
        "Latitude": 51.77795,
        "EnrichedAddress.Address": "Ambachtsweg 24, 6562 AV Groesbeek, Netherlands",
        "EnrichedAddress.City": "Berg en Dal",
        "EnrichedAddress.Country": "Netherlands",
        "EnrichedAddress.CountryCode": "NL",
        "EnrichedAddress.County": "Groesbeek",
        "EnrichedAddress.Latitude": 51.7779543,
        "EnrichedAddress.Longitude": 5.9443277,
        "EnrichedAddress.PostalCode": "6562 AV",
        "EnrichedAddress.ProcessCode": "OK",
        "EnrichedAddress.State": "Gelderland",
        "EnrichedAddress.StreetNumber": "24",
        "EnrichedAddress.StreetName": "Ambachtsweg"
      },
      {
        "SourceID": "3705LP#10#1",
        "PublisherID_Location": "BRINKS",
        "SourceID_Location": "3705001",
        "Address": "Dijnselburgerlaan 10",
        "City": "ZEIST",
        "Zipcode": "3705LP",
        "FID_AddressType": 1,
        "Longitude": 5.252664,
        "Latitude": 52.10421,
        "EnrichedAddress.Address": "Dijnselburgerlaan 10, 3705 LP Zeist, Netherlands",
        "EnrichedAddress.City": "Zeist",
        "EnrichedAddress.Country": "Netherlands",
        "EnrichedAddress.CountryCode": "NL",
        "EnrichedAddress.County": "Zeist",
        "EnrichedAddress.Latitude": 52.10421239999999,
        "EnrichedAddress.Longitude": 5.2526647,
        "EnrichedAddress.PostalCode": "3705 LP",
        "EnrichedAddress.ProcessCode": "OK",
        "EnrichedAddress.State": "Utrecht",
        "EnrichedAddress.StreetNumber": "10",
        "EnrichedAddress.StreetName": "Dijnselburgerlaan"
      },
      {
        "SourceID": "1541HL#3#1",
        "PublisherID_Location": "BRINKS",
        "SourceID_Location": "1541001",
        "Address": "Kaarsenmakersstraat 3",
        "City": "KOOG AAN DE ZAAN",
        "Zipcode": "1541HL",
        "FID_AddressType": 1,
        "Longitude": 4.808003,
        "Latitude": 52.46476,
        "EnrichedAddress.Address": "Kaarsenmakersstraat 3, 1541 HL Koog aan de Zaan, Netherlands",
        "EnrichedAddress.City": "Zaanstad",
        "EnrichedAddress.Country": "Netherlands",
        "EnrichedAddress.CountryCode": "NL",
        "EnrichedAddress.County": "Koog aan de Zaan",
        "EnrichedAddress.Latitude": 52.4647631,
        "EnrichedAddress.Longitude": 4.8080033,
        "EnrichedAddress.PostalCode": "1541 HL",
        "EnrichedAddress.ProcessCode": "OK",
        "EnrichedAddress.State": "Noord-Holland",
        "EnrichedAddress.StreetNumber": "3",
        "EnrichedAddress.StreetName": "Kaarsenmakersstraat"
      },
      {
        "SourceID": "8601VB#1#1",
        "PublisherID_Location": "BRINKS",
        "SourceID_Location": "8601001",
        "Address": "Wolkammersstraat 1",
        "City": "SNEEK",
        "Zipcode": "8601VB",
        "FID_AddressType": 1,
        "Longitude": 4.967184,
        "Latitude": 52.29177,
        "EnrichedAddress.Address": "Tolkamerstraat 1, 8601vb, 1107 PA Amsterdam, Netherlands",
        "EnrichedAddress.City": "Amsterdam",
        "EnrichedAddress.Country": "Netherlands",
        "EnrichedAddress.CountryCode": "NL",
        "EnrichedAddress.County": "Amsterdam",
        "EnrichedAddress.Latitude": 52.291771,
        "EnrichedAddress.Longitude": 4.9671844,
        "EnrichedAddress.PostalCode": "1107 PA",
        "EnrichedAddress.ProcessCode": "OK",
        "EnrichedAddress.State": "Noord-Holland",
        "EnrichedAddress.StreetNumber": "1",
        "EnrichedAddress.StreetName": "Tolkamerstraat"
      },
      {
        "SourceID": "8102HG#1#1",
        "PublisherID_Location": "BRINKS",
        "SourceID_Location": "8102001",
        "Address": "Tjalkstraat 1",
        "City": "RAALTE",
        "Zipcode": "8102HG",
        "FID_AddressType": 1,
        "Longitude": 6.288364,
        "Latitude": 52.38198,
        "EnrichedAddress.Address": "Tjalkstraat 1, 8102 HG Raalte, Netherlands",
        "EnrichedAddress.City": "Raalte",
        "EnrichedAddress.Country": "Netherlands",
        "EnrichedAddress.CountryCode": "NL",
        "EnrichedAddress.County": "Raalte",
        "EnrichedAddress.Latitude": 52.3819843,
        "EnrichedAddress.Longitude": 6.2883646,
        "EnrichedAddress.PostalCode": "8102 HG",
        "EnrichedAddress.ProcessCode": "OK",
        "EnrichedAddress.State": "Overijssel",
        "EnrichedAddress.StreetNumber": "1",
        "EnrichedAddress.StreetName": "Tjalkstraat"
      },
      {
        "SourceID": "5981XC#28#1",
        "PublisherID_Location": "BRINKS",
        "SourceID_Location": "5981001",
        "Address": "John F Kennedylaan 28",
        "City": "PANNINGEN",
        "Zipcode": "5981XC",
        "FID_AddressType": 1,
        "Longitude": 5.970746,
        "Latitude": 51.32618,
        "EnrichedAddress.Address": "J. F. Kennedylaan 28, 5981 XC Panningen, Netherlands",
        "EnrichedAddress.City": "Peel en Maas",
        "EnrichedAddress.Country": "Netherlands",
        "EnrichedAddress.CountryCode": "NL",
        "EnrichedAddress.County": "Panningen",
        "EnrichedAddress.Latitude": 51.3261821,
        "EnrichedAddress.Longitude": 5.9707469,
        "EnrichedAddress.PostalCode": "5981 XC",
        "EnrichedAddress.ProcessCode": "OK",
        "EnrichedAddress.State": "Limburg",
        "EnrichedAddress.StreetNumber": "28",
        "EnrichedAddress.StreetName": "John F. Kennedylaan"
      },
      {
        "SourceID": "1625NV#6#1",
        "PublisherID_Location": "BRINKS",
        "SourceID_Location": "1625001",
        "Address": "Dr. C.J.K. van Aalstweg 6",
        "City": "HOORN NH",
        "Zipcode": "1625NV",
        "FID_AddressType": 1,
        "Longitude": 5.049401,
        "Latitude": 52.64971,
        "EnrichedAddress.Address": "Doctor C.J.K. van Aalstweg 6, 1625 NV Hoorn, Netherlands",
        "EnrichedAddress.City": "Hoorn",
        "EnrichedAddress.Country": "Netherlands",
        "EnrichedAddress.CountryCode": "NL",
        "EnrichedAddress.County": "Hoorn",
        "EnrichedAddress.Latitude": 52.649715,
        "EnrichedAddress.Longitude": 5.0494013,
        "EnrichedAddress.PostalCode": "1625 NV",
        "EnrichedAddress.ProcessCode": "OK",
        "EnrichedAddress.State": "Noord-Holland",
        "EnrichedAddress.StreetNumber": "6",
        "EnrichedAddress.StreetName": "Doctor C.J.K. van Aalstweg"
      },
      {
        "SourceID": "1406NW#12#1",
        "PublisherID_Location": "BRINKS",
        "SourceID_Location": "1406001",
        "Address": "Franse Kampweg 12",
        "City": "BUSSUM",
        "Zipcode": "1406NW",
        "FID_AddressType": 1,
        "Longitude": 5.142667,
        "Latitude": 52.26076,
        "EnrichedAddress.Address": "Franse Kampweg 12, 1406 NW Bussum, Netherlands",
        "EnrichedAddress.City": "Gooise Meren",
        "EnrichedAddress.Country": "Netherlands",
        "EnrichedAddress.CountryCode": "NL",
        "EnrichedAddress.County": "Bussum",
        "EnrichedAddress.Latitude": 52.2607617,
        "EnrichedAddress.Longitude": 5.1426675,
        "EnrichedAddress.PostalCode": "1406 NW",
        "EnrichedAddress.ProcessCode": "OK",
        "EnrichedAddress.State": "Noord-Holland",
        "EnrichedAddress.StreetNumber": "12",
        "EnrichedAddress.StreetName": "Franse Kampweg"
      },
      {
        "SourceID": "9531AK#5#1",
        "PublisherID_Location": "BRINKS",
        "SourceID_Location": "9531001",
        "Address": "Grote Brink 5",
        "City": "BORGER",
        "Zipcode": "9531AK",
        "FID_AddressType": 1,
        "Longitude": 6.790935,
        "Latitude": 52.92355,
        "EnrichedAddress.Address": "Grote Brink 5, 9531 AK Borger, Netherlands",
        "EnrichedAddress.City": "Borger-Odoorn",
        "EnrichedAddress.Country": "Netherlands",
        "EnrichedAddress.CountryCode": "NL",
        "EnrichedAddress.County": "Borger",
        "EnrichedAddress.Latitude": 52.92355689999999,
        "EnrichedAddress.Longitude": 6.7909352,
        "EnrichedAddress.PostalCode": "9531 AK",
        "EnrichedAddress.ProcessCode": "OK",
        "EnrichedAddress.State": "Drenthe",
        "EnrichedAddress.StreetNumber": "5",
        "EnrichedAddress.StreetName": "Grote Brink"
      },
      {
        "SourceID": "2583CP#220#1",
        "PublisherID_Location": "BRINKS",
        "SourceID_Location": "2583001",
        "Address": "Dr. Lelykade 220",
        "City": "'S-GRAVENHAGE",
        "Zipcode": "2583CP",
        "FID_AddressType": 1,
        "Longitude": 4.266362,
        "Latitude": 52.09506,
        "EnrichedAddress.Address": "Dr. Lelykade 220, 2583 CP Den Haag, Netherlands",
        "EnrichedAddress.City": "Den Haag",
        "EnrichedAddress.Country": "Netherlands",
        "EnrichedAddress.CountryCode": "NL",
        "EnrichedAddress.County": "Den Haag",
        "EnrichedAddress.Latitude": 52.0950693,
        "EnrichedAddress.Longitude": 4.266362099999999,
        "EnrichedAddress.PostalCode": "2583 CP",
        "EnrichedAddress.ProcessCode": "OK",
        "EnrichedAddress.State": "Zuid-Holland",
        "EnrichedAddress.StreetNumber": "220",
        "EnrichedAddress.StreetName": "Dr. Lelykade"
      },
      {
        "SourceID": "3194DB#30#1",
        "PublisherID_Location": "BRINKS",
        "SourceID_Location": "3194001",
        "Address": "Nieuwe Langeweg 30",
        "City": "HOOGVLIET ROTTERDAM",
        "Zipcode": "3194DB",
        "FID_AddressType": 1,
        "Longitude": 4.372517,
        "Latitude": 51.87015,
        "EnrichedAddress.Address": "Nieuwe Langeweg 30, 3194 DB Hoogvliet Rotterdam, Netherlands",
        "EnrichedAddress.City": "Rotterdam",
        "EnrichedAddress.Country": "Netherlands",
        "EnrichedAddress.CountryCode": "NL",
        "EnrichedAddress.County": "Hoogvliet Rotterdam",
        "EnrichedAddress.Latitude": 51.870152,
        "EnrichedAddress.Longitude": 4.3725171,
        "EnrichedAddress.PostalCode": "3194 DB",
        "EnrichedAddress.ProcessCode": "OK",
        "EnrichedAddress.State": "Zuid-Holland",
        "EnrichedAddress.StreetNumber": "30",
        "EnrichedAddress.StreetName": "Nieuwe Langeweg"
      },
      {
        "SourceID": "2771RV#1#1",
        "PublisherID_Location": "BRINKS",
        "SourceID_Location": "2771001",
        "Address": "Westpark 1",
        "City": "BOSKOOP",
        "Zipcode": "2771RV",
        "FID_AddressType": 1,
        "Longitude": null,
        "Latitude": null,
        "EnrichedAddress.Address": null,
        "EnrichedAddress.City": null,
        "EnrichedAddress.Country": null,
        "EnrichedAddress.CountryCode": null,
        "EnrichedAddress.County": null,
        "EnrichedAddress.Latitude": null,
        "EnrichedAddress.Longitude": null,
        "EnrichedAddress.PostalCode": null,
        "EnrichedAddress.ProcessCode": "ZERO_RESULTS",
        "EnrichedAddress.State": null,
        "EnrichedAddress.StreetNumber": null,
        "EnrichedAddress.StreetName": null
      },
      {
        "SourceID": "2521AW#130#1",
        "PublisherID_Location": "BRINKS",
        "SourceID_Location": "2521001",
        "Address": "Van der Kunstraat 130",
        "City": "'S-GRAVENHAGE",
        "Zipcode": "2521AW",
        "FID_AddressType": 1,
        "Longitude": 4.315203,
        "Latitude": 52.06288,
        "EnrichedAddress.Address": "Van der Kunstraat 130, 2521 AW Den Haag, Netherlands",
        "EnrichedAddress.City": "Den Haag",
        "EnrichedAddress.Country": "Netherlands",
        "EnrichedAddress.CountryCode": "NL",
        "EnrichedAddress.County": "Den Haag",
        "EnrichedAddress.Latitude": 52.06288259999999,
        "EnrichedAddress.Longitude": 4.315203599999999,
        "EnrichedAddress.PostalCode": "2521 AW",
        "EnrichedAddress.ProcessCode": "OK",
        "EnrichedAddress.State": "Zuid-Holland",
        "EnrichedAddress.StreetNumber": "130",
        "EnrichedAddress.StreetName": "Van der Kunstraat"
      },
      {
        "SourceID": "2809PG#121#1",
        "PublisherID_Location": "BRINKS",
        "SourceID_Location": "2809001",
        "Address": "Marconistraat 121",
        "City": "GOUDA",
        "Zipcode": "2809PG",
        "FID_AddressType": 1,
        "Longitude": 4.686846,
        "Latitude": 52.00473,
        "EnrichedAddress.Address": "Marconistraat 121, 2809 PG Gouda, Netherlands",
        "EnrichedAddress.City": "Gouda",
        "EnrichedAddress.Country": "Netherlands",
        "EnrichedAddress.CountryCode": "NL",
        "EnrichedAddress.County": "Gouda",
        "EnrichedAddress.Latitude": 52.00473789999999,
        "EnrichedAddress.Longitude": 4.6868463,
        "EnrichedAddress.PostalCode": "2809 PG",
        "EnrichedAddress.ProcessCode": "OK",
        "EnrichedAddress.State": "Zuid-Holland",
        "EnrichedAddress.StreetNumber": "121",
        "EnrichedAddress.StreetName": "Marconistraat"
      },
      {
        "SourceID": "5912PZ#96#1",
        "PublisherID_Location": "BRINKS",
        "SourceID_Location": "5912001",
        "Address": "Ari\\u00ebnsstraat 96",
        "City": "VENLO",
        "Zipcode": "5912PZ",
        "FID_AddressType": 1,
        "Longitude": 6.151698,
        "Latitude": 51.35158,
        "EnrichedAddress.Address": "Ari\\u00ebnsstraat 96, 5931 HP Tegelen, Netherlands",
        "EnrichedAddress.City": "Venlo",
        "EnrichedAddress.Country": "Netherlands",
        "EnrichedAddress.CountryCode": "NL",
        "EnrichedAddress.County": "Tegelen",
        "EnrichedAddress.Latitude": 51.351584,
        "EnrichedAddress.Longitude": 6.1516988,
        "EnrichedAddress.PostalCode": "5931 HP",
        "EnrichedAddress.ProcessCode": "OK",
        "EnrichedAddress.State": "Limburg",
        "EnrichedAddress.StreetNumber": "96",
        "EnrichedAddress.StreetName": "Ari\\u00ebnsstraat"
      },
      {
        "SourceID": "6412PM#125#1",
        "PublisherID_Location": "BRINKS",
        "SourceID_Location": "6412001",
        "Address": "In de Cramer 125",
        "City": "HEERLEN",
        "Zipcode": "6412PM",
        "FID_AddressType": 1,
        "Longitude": 5.950244,
        "Latitude": 50.89596,
        "EnrichedAddress.Address": "In de Cramer 125, 6412 PM Heerlen, Netherlands",
        "EnrichedAddress.City": "Heerlen",
        "EnrichedAddress.Country": "Netherlands",
        "EnrichedAddress.CountryCode": "NL",
        "EnrichedAddress.County": "Heerlen",
        "EnrichedAddress.Latitude": 50.8959671,
        "EnrichedAddress.Longitude": 5.9502444,
        "EnrichedAddress.PostalCode": "6412 PM",
        "EnrichedAddress.ProcessCode": "OK",
        "EnrichedAddress.State": "Limburg",
        "EnrichedAddress.StreetNumber": "125",
        "EnrichedAddress.StreetName": "In de Cramer"
      },